"","station_id","station_name","lat","long","total","electric","classic"
"1","5","State St & Harrison St","41.874053","-87.627716","204","0","204"
"2","13","Wilton Ave & Diversey Pkwy","41.932418","-87.652705","223","0","223"
"3","14","Morgan St & 18th St","41.858086","-87.651073","84","0","84"
"4","15","Racine Ave & 18th St","41.858166","-87.656495","200","0","200"
"5","16","Wood St & North Ave","41.909854652","-87.66993016","123","0","123"
"6","17","Wood St & Division St","41.903119","-87.673935","119","0","119"
"7","19","Loomis St & Taylor St","41.868968","-87.659141","64","0","64"
"8","20","Sheffield Ave & Kingsbury St","41.910522","-87.653106","162","0","162"
"9","21","Aberdeen St & Jackson Blvd","41.87772613","-87.65478743","173","0","173"
"10","22","May St & Taylor St","41.8694821","-87.6554864","101","0","101"
"11","23","Orleans St & Elm St","41.902924","-87.637715","132","0","132"
"12","24","Fairbanks Ct & Grand Ave","41.891847372","-87.620580196","251","0","251"
"13","25","Michigan Ave & Pearson St","41.89766","-87.62351","280","0","280"
"14","26","McClurg Ct & Illinois St","41.890847041","-87.618616819","582","0","582"
"15","27","Larrabee St & North Ave","41.91021","-87.6435","32","0","32"
"16","28","Larrabee St & Menomonee St","41.91468","-87.64332","73","0","73"
"17","29","Noble St & Milwaukee Ave","41.90068","-87.6626","137","0","137"
"18","30","Ashland Ave & Augusta Blvd","41.899643","-87.6677","66","0","66"
"19","31","Franklin St & Chicago Ave","41.896746973","-87.635667622","393","0","393"
"20","32","Racine Ave & Congress Pkwy","41.87464","-87.65703","175","0","175"
"21","33","State St & Van Buren St","41.877181","-87.627844","476","0","476"
"22","34","Cannon Dr & Fullerton Ave","41.926755988","-87.634428785","34","0","34"
"23","35","Streeter Dr & Illinois St","41.892278","-87.612043","128","0","128"
"24","36","Franklin St & Jackson Blvd","41.877707956","-87.635321141","589","0","589"
"25","37","Dearborn St & Adams St","41.879356359","-87.629791036","536","0","536"
"26","42","Wabash Ave & Cermak Rd","41.852619","-87.626488","59","0","59"
"27","43","Michigan Ave & Washington St","41.883984065","-87.624683976","524","0","524"
"28","44","State St & Randolph St","41.884621073","-87.627834231","469","0","469"
"29","45","Michigan Ave & Congress Pkwy","41.876243","-87.624426","197","0","197"
"30","46","Wells St & Walton St","41.89993001","-87.63443007","288","0","288"
"31","47","State St & Kinzie St","41.889187","-87.627754","615","0","615"
"32","48","Larrabee St & Kingsbury St","41.897764","-87.642884","773","0","773"
"33","49","Dearborn St & Monroe St","41.881319815","-87.629520919","939","0","939"
"34","50","Clark St & Congress Pkwy","41.875932666","-87.630584536","359","0","359"
"35","51","Clark St & Randolph St","41.884576228","-87.63188991","637","0","637"
"36","52","Michigan Ave & Lake St","41.886024","-87.624117","853","0","853"
"37","53","Wells St & Erie St","41.894722","-87.634362","534","0","534"
"38","54","Ogden Ave & Chicago Ave","41.896362458","-87.654061273","169","0","169"
"39","55","Halsted St & James M Rochford St","41.867324","-87.648625","53","0","53"
"40","56","Desplaines St & Kinzie St","41.888716036","-87.644447853","446","0","446"
"41","57","Clinton St & Roosevelt Rd","41.867117783","-87.641087959","150","0","150"
"42","58","Marshfield Ave & Cortland St","41.916433429","-87.666746378","302","0","302"
"43","59","Wabash Ave & Roosevelt Rd","41.867227","-87.625961","527","0","527"
"44","60","Dayton St & North Ave","41.910578035","-87.649421929","164","0","164"
"45","61","Wood St & Milwaukee Ave","41.907655","-87.672552","168","0","168"
"46","62","McCormick Place","41.851375173","-87.618834649","59","0","59"
"47","66","Clinton St & Lake St","41.885637","-87.641823","502","0","502"
"48","67","Sheffield Ave & Fullerton Ave","41.925601882","-87.653708042","361","0","361"
"49","68","Clinton St & Tilden St","41.875885","-87.640795","146","0","146"
"50","69","Damen Ave & Pierce Ave","41.909396007","-87.677691929","336","0","336"
"51","71","Morgan St & Lake St","41.885779252","-87.65102461","294","0","294"
"52","72","State St & 16th St","41.860384","-87.625813","73","0","73"
"53","73","Jefferson St & Monroe St","41.880329634","-87.642745972","386","0","386"
"54","74","Kingsbury St & Erie St","41.893808056","-87.641697228","407","0","407"
"55","75","Canal St & Jackson Blvd","41.877245","-87.639366","901","0","901"
"56","76","Lake Shore Dr & Monroe St","41.880958","-87.616743","99","0","99"
"57","77","Clinton St & Madison St","41.882242","-87.641066","695","0","695"
"58","80","Aberdeen St & Madison St","41.880419","-87.655519","234","0","234"
"59","81","Daley Center Plaza","41.884241","-87.629634","574","0","574"
"60","84","Green St & Milwaukee Ave","41.891578","-87.648384","213","0","213"
"61","85","Michigan Ave & Oak St","41.90096039","-87.62377664","375","0","375"
"62","86","Eckhart Park","41.89637337","-87.66098386","130","0","130"
"63","87","Racine Ave & Fullerton Ave","41.92556258","-87.65840426","120","0","120"
"64","88","May St & Randolph St","41.884069","-87.656853","143","0","143"
"65","90","Millennium Park","41.8810317","-87.62408432","391","0","391"
"66","91","Clinton St & Washington Blvd","41.88338","-87.64117","2017","0","2017"
"67","92","Carpenter St & Huron St","41.894556","-87.653449","117","0","117"
"68","93","Sheffield Ave & Willow St","41.913688","-87.652855","135","0","135"
"69","94","Clark St & Armitage Ave","41.918306","-87.636282","208","0","208"
"70","97","Museum Campus","41.865312","-87.617867","118","0","118"
"71","98","LaSalle St & Washington St","41.882664","-87.63253","598","0","598"
"72","99","Lake Shore Dr & Ohio St","41.89259212","-87.617289126","252","0","252"
"73","100","Orleans St & Merchandise Mart Plaza","41.888243","-87.63639","772","0","772"
"74","106","State St & Pearson St","41.897448","-87.628722","172","0","172"
"75","108","Halsted St & Polk St","41.87184","-87.64664","213","0","213"
"76","109","900 W Harrison","41.874754","-87.649807","224","0","224"
"77","110","State St & Erie St","41.893992","-87.629318","529","0","529"
"78","111","Sedgwick St & Huron St","41.894666","-87.638437","171","0","171"
"79","112","Green St & Randolph St","41.883181306","-87.648724616","250","0","250"
"80","113","Bissell St & Armitage Ave","41.918018142","-87.652181983","103","0","103"
"81","114","Sheffield Ave & Addison St","41.949399","-87.654529","128","0","128"
"82","115","Sheffield Ave & Wellington Ave","41.936253483","-87.652662098","222","0","222"
"83","116","Western Ave & Winnebago Ave","41.91552","-87.687022","79","0","79"
"84","117","Wilton Ave & Belmont Ave","41.94018","-87.65304","318","0","318"
"85","118","Sedgwick St & North Ave","41.911386","-87.638677","206","0","206"
"86","119","Ashland Ave & Lake St","41.88592","-87.66717","76","0","76"
"87","120","Wentworth Ave & Archer Ave","41.853084557","-87.631931305","57","0","57"
"88","121","Blackstone Ave & Hyde Park Blvd","41.802562","-87.590368","30","0","30"
"89","122","Ogden Ave & Congress Pkwy","41.87501","-87.67328","73","0","73"
"90","123","California Ave & Milwaukee Ave","41.922695","-87.697153","229","0","229"
"91","124","Damen Ave & Cullerton St","41.854966519","-87.675699592","20","0","20"
"92","126","Clark St & North Ave","41.911974","-87.631942","104","0","104"
"93","127","Lincoln Ave & Fullerton Ave","41.924161029","-87.646380365","153","0","153"
"94","128","Damen Ave & Chicago Ave","41.895769","-87.67722","172","0","172"
"95","129","Blue Island Ave & 18th St","41.857556","-87.661535","157","0","157"
"96","130","Damen Ave & Division St","41.903266","-87.678435","293","0","293"
"97","131","Lincoln Ave & Belmont Ave","41.939365","-87.668385","102","0","102"
"98","132","Wentworth Ave & 24th St","41.850083693","-87.632140517","14","0","14"
"99","134","Peoria St & Jackson Blvd","41.877641596","-87.649617791","469","0","469"
"100","135","Halsted St & 21st St","41.853779811","-87.646602988","36","0","36"
"101","136","Racine Ave & 13th St","41.865054","-87.656959","49","0","49"
"102","137","Morgan Ave & 14th Pl","41.862378","-87.651062","183","0","183"
"103","138","Clybourn Ave & Division St","41.904613","-87.640552","123","0","123"
"104","140","Dearborn Pkwy & Delaware Pl","41.898969","-87.629912","341","0","341"
"105","141","Clark St & Lincoln Ave","41.915689","-87.6346","165","0","165"
"106","143","Sedgwick St & Webster Ave","41.922167","-87.638888","199","0","199"
"107","144","Larrabee St & Webster Ave","41.921822","-87.64414","172","0","172"
"108","146","Loomis St & Jackson Blvd","41.877945","-87.662007","125","0","125"
"109","147","Indiana Ave & 26th St","41.845687","-87.622481","8","0","8"
"110","148","State St & 33rd St","41.834734","-87.625813","55","0","55"
"111","149","Calumet Ave & 33rd St","41.8349","-87.61793","15","0","15"
"112","150","Fort Dearborn Dr & 31st St","41.838556","-87.608218","40","0","40"
"113","152","Lincoln Ave & Diversey Pkwy","41.932225","-87.658617","154","0","154"
"114","153","Southport Ave & Wellington Ave","41.935733","-87.663576","184","0","184"
"115","154","Southport Ave & Belmont Ave","41.93947775","-87.663747668","66","0","66"
"116","156","Clark St & Wellington Ave","41.936496822","-87.647538658","258","0","258"
"117","157","Lake Shore Dr & Wellington Ave","41.936688449","-87.636829019","111","0","111"
"118","158","Milwaukee Ave & Wabansia Ave","41.912616","-87.681391","99","0","99"
"119","159","Claremont Ave & Hirsch St","41.907781","-87.685854","31","0","31"
"120","160","Campbell Ave & North Ave","41.910535","-87.689556","16","0","16"
"121","162","Damen Ave & Wellington Ave","41.93588","-87.67842","51","0","51"
"122","163","Paulina St & Diversey Pkwy","41.931931","-87.677856","29","0","29"
"123","164","Franklin St & Lake St","41.885837","-87.6355","517","0","517"
"124","165","Clark St & Waveland Ave","41.95078","-87.659172","74","0","74"
"125","166","Ashland Ave & Wrightwood Ave","41.92883","-87.668507","58","0","58"
"126","167","Damen Ave & Coulter St","41.8492","-87.67564","7","0","7"
"127","168","Michigan Ave & 14th St","41.864059","-87.623727","137","0","137"
"128","169","Canal St & Harrison St","41.874255","-87.639573","67","0","67"
"129","170","Clinton St & 18th St","41.85795","-87.640826","58","0","58"
"130","171","May St & Cullerton St","41.855136","-87.654127","32","0","32"
"131","173","Mies van der Rohe Way & Chicago Ave","41.896944626","-87.621757686","323","0","323"
"132","174","Canal St & Madison St","41.882091","-87.639833","1712","0","1712"
"133","175","Wells St & Polk St","41.872596","-87.633502","197","0","197"
"134","176","Clark St & Elm St","41.902973","-87.63128","372","0","372"
"135","177","Theater on the Lake","41.926277","-87.630834","148","0","148"
"136","178","State St & 19th St","41.856594","-87.627542","45","0","45"
"137","179","Martin Luther King Dr & Oakwood Blvd","41.8246","-87.61678","3","0","3"
"138","181","LaSalle St & Illinois St","41.890762","-87.631697","481","0","481"
"139","183","Damen Ave & Augusta Blvd","41.901315","-87.677409","159","0","159"
"140","184","State St & 35th St","41.831036314","-87.626797557","37","0","37"
"141","185","Stave St & Armitage Ave","41.917741","-87.691392","106","0","106"
"142","186","Ogden Ave & Race Ave","41.891795","-87.658751","200","0","200"
"143","188","Greenview Ave & Fullerton Ave","41.92533","-87.6658","81","0","81"
"144","190","Southport Ave & Wrightwood Ave","41.928773","-87.663913","125","0","125"
"145","191","Canal St & Monroe St","41.88169","-87.63953","388","0","388"
"146","192","Canal St & Adams St","41.879255","-87.639904","1202","0","1202"
"147","193","State St & 29th St","41.841707","-87.626938","7","0","7"
"148","194","State St & Wacker Dr","41.886875","-87.62603","293","0","293"
"149","195","Columbus Dr & Randolph St","41.884728","-87.619521","559","0","559"
"150","196","Cityfront Plaza & N Water St","41.890573","-87.622072","273","0","273"
"151","197","Michigan Ave & Madison St","41.882134","-87.625125","328","0","328"
"152","198","Halsted St & Madison St","41.881892","-87.648789","227","0","227"
"153","199","Wabash Ave & Grand Ave","41.891466","-87.626761","511","0","511"
"154","200","King Dr & 47th St","41.809851","-87.616279","6","0","6"
"155","201","Indiana Ave & 40th St","41.82168","-87.6216","2","0","2"
"156","202","Halsted St & 18th St","41.85750568","-87.645991445","120","0","120"
"157","203","Western Ave & 21st St","41.854109","-87.685838","18","0","18"
"158","204","Prairie Ave & Garfield Blvd","41.794853","-87.618691","30","0","30"
"159","205","Paulina St & 18th St","41.857901","-87.668745","64","0","64"
"160","206","Halsted St & Archer Ave","41.847203","-87.646795","96","0","96"
"161","207","Emerald Ave & 28th St","41.84358","-87.645368","26","0","26"
"162","208","Ashland Ave & 21st St","41.854914576","-87.663559914","3","0","3"
"163","209","Normal Ave & Archer Ave","41.849527","-87.640591","11","0","11"
"164","210","Ashland Ave & Division St","41.90345","-87.667747","271","0","271"
"165","211","St Clair St & Erie St","41.894345137","-87.622798383","405","0","405"
"166","212","Wells St & Hubbard St","41.889906","-87.634266","242","0","242"
"167","213","Leavitt St & North Ave","41.910509367","-87.682389021","82","0","82"
"168","214","Damen Ave & Grand Ave","41.891264346","-87.676842213","103","0","103"
"169","215","Damen Ave & Madison St","41.88137","-87.67493","13","0","13"
"170","216","California Ave & Division St","41.903029","-87.697474","84","0","84"
"171","217","May St & Fulton St","41.886616486","-87.658039927","317","0","317"
"172","218","Wells St & 19th St","41.856802","-87.633879","21","0","21"
"173","219","Damen Ave & Cortland St","41.915983","-87.677335","135","0","135"
"174","220","Hampden Ct & Diversey Pkwy","41.931248","-87.644336","210","0","210"
"175","222","Milwaukee Ave & Rockwell St","41.920195562","-87.692659199","68","0","68"
"176","223","Clifton Ave & Armitage Ave","41.918216","-87.656936","168","0","168"
"177","224","Halsted St & Willow St","41.913865","-87.648755","133","0","133"
"178","225","Halsted St & Dickens Ave","41.919936","-87.64883","90","0","90"
"179","226","Racine Ave & Belmont Ave","41.939743","-87.658865","89","0","89"
"180","227","Southport Ave & Waveland Ave","41.94815","-87.66394","137","0","137"
"181","228","Damen Ave & Melrose Ave","41.9406","-87.6785","50","0","50"
"182","229","Southport Ave & Roscoe St","41.943739","-87.66402","180","0","180"
"183","230","Lincoln Ave & Roscoe St","41.94379115","-87.671257854","147","0","147"
"184","231","Sheridan Rd & Montrose Ave","41.96167","-87.65464","87","0","87"
"185","232","Pine Grove Ave & Waveland Ave","41.949472741","-87.646452785","141","0","141"
"186","233","Sangamon St & Washington Blvd","41.883165","-87.6511","216","0","216"
"187","234","Clark St & Montrose Ave","41.961588","-87.666036","66","0","66"
"188","236","Sedgwick St & Schiller St","41.907626","-87.638566","51","0","51"
"189","237","Martin Luther King Dr & 29th St","41.842052","-87.617","33","0","33"
"190","238","Ravenswood Ave & Montrose Ave","41.961406","-87.676169","98","0","98"
"191","239","Western Ave & Leland Ave","41.966399802","-87.688704282","75","0","75"
"192","240","Sheridan Rd & Irving Park Rd","41.954245","-87.654406","253","0","253"
"193","241","Morgan St & Polk St","41.871737","-87.65103","297","0","297"
"194","242","Damen Ave & Leland Ave","41.967094","-87.679028","80","0","80"
"195","243","Lincoln Ave & Leavitt St","41.963004","-87.684781","106","0","106"
"196","244","Ravenswood Ave & Irving Park Rd","41.95469","-87.67393","74","0","74"
"197","245","Clarendon Ave & Junior Ter","41.961004","-87.649603","59","0","59"
"198","246","Ashland Ave & Belle Plaine Ave","41.956057","-87.668835","43","0","43"
"199","247","Shore Drive & 55th St","41.795212","-87.580715","41","0","41"
"200","248","Woodlawn Ave & 55th St","41.795264","-87.596471","95","0","95"
"201","249","Montrose Harbor","41.963982","-87.638181","18","0","18"
"202","250","Ashland Ave & Wellington Ave","41.936083","-87.669807","53","0","53"
"203","251","Clarendon Ave & Leland Ave","41.967968","-87.650001","62","0","62"
"204","252","Greenwood Ave & 47th St","41.809835","-87.599383","16","0","16"
"205","253","Clifton Ave & Lawrence Ave","41.968812","-87.657659","39","0","39"
"206","254","Pine Grove Ave & Irving Park Rd","41.954383","-87.648043","125","0","125"
"207","255","Indiana Ave & Roosevelt Rd","41.867888","-87.623041","230","0","230"
"208","256","Broadway & Sheridan Rd","41.952833","-87.649993","77","0","77"
"209","257","Lincoln Ave & Waveland Ave","41.948797","-87.675278","56","0","56"
"210","258","Logan Blvd & Elston Ave","41.929465","-87.684158","61","0","61"
"211","259","California Ave & Francis Pl","41.918491154","-87.697422802","117","0","117"
"212","260","Kedzie Ave & Milwaukee Ave","41.929567","-87.707857","142","0","142"
"213","261","Hermitage Ave & Polk St","41.871514","-87.669886","174","0","174"
"214","262","Halsted St & 37th St","41.827059","-87.64572","3","0","3"
"215","263","Rhodes Ave & 32nd St","41.836208","-87.613533","33","0","33"
"216","264","Stetson Ave & South Water St","41.886835","-87.62232","178","0","178"
"217","265","Cottage Grove Ave & Oakwood Blvd","41.822985","-87.6071","4","0","4"
"218","267","Lake Park Ave & 47th St","41.809443","-87.591875","10","0","10"
"219","268","Lake Shore Dr & North Blvd","41.911722","-87.626804","70","0","70"
"220","271","Cottage Grove Ave & 43rd St","41.816499","-87.606582","2","0","2"
"221","272","Indiana Ave & 31st St","41.838842","-87.621857","20","0","20"
"222","273","Michigan Ave & 18th St","41.857813","-87.62455","136","0","136"
"223","274","Racine Ave & 15th St","41.861267","-87.656625","64","0","64"
"224","275","Ashland Ave & 13th St","41.865234","-87.666507","12","0","12"
"225","276","California Ave & North Ave","41.91044","-87.6972","82","0","82"
"226","277","Ashland Ave & Grand Ave","41.891072","-87.666611","104","0","104"
"227","278","Wallace Ave & 35th St","41.83101433","-87.641183585","11","0","11"
"228","279","Halsted St & 35th St","41.830661","-87.647172","26","0","26"
"229","280","Morgan St & 31st St","41.8378","-87.65114","29","0","29"
"230","281","Western Ave & 24th St","41.84847","-87.685109","4","0","4"
"231","282","Halsted St & Maxwell St","41.864883","-87.647071","74","0","74"
"232","283","LaSalle St & Jackson Blvd","41.878166","-87.631929","971","0","971"
"233","284","Michigan Ave & Jackson Blvd","41.87785","-87.62408","309","0","309"
"234","285","Wood St & Grand Ave","41.889899","-87.671473","111","0","111"
"235","286","Franklin St & Quincy St","41.879434091","-87.635504007","468","0","468"
"236","287","Franklin St & Arcade Pl","41.880317","-87.635185","928","0","928"
"237","288","Larrabee St & Armitage Ave","41.918084","-87.643749","74","0","74"
"238","289","Wells St & Concord Ln","41.912133","-87.634656","329","0","329"
"239","290","Kedzie Ave & Palmer Ct","41.921525","-87.707322","181","0","181"
"240","291","Wells St & Evergreen Ave","41.906724","-87.63483","227","0","227"
"241","292","Southport Ave & Clark St","41.957081","-87.664199","35","0","35"
"242","293","Broadway & Wilson Ave","41.965221","-87.658139","56","0","56"
"243","294","Broadway & Berwyn Ave","41.978353","-87.659753","62","0","62"
"244","295","Broadway & Argyle St","41.973815","-87.65966","60","0","60"
"245","296","Broadway & Belmont Ave","41.940106","-87.645451","174","0","174"
"246","297","Paulina St & Montrose Ave","41.961507","-87.671387","33","0","33"
"247","298","Lincoln Ave & Belle Plaine Ave","41.956003551","-87.680161446","61","0","61"
"248","299","Halsted St & Roscoe St","41.94367","-87.64895","54","0","54"
"249","300","Broadway & Barry Ave","41.937582316","-87.644097805","104","0","104"
"250","301","Clark St & Schiller St","41.907993","-87.631501","187","0","187"
"251","302","Sheffield Ave & Wrightwood Ave","41.928712","-87.653833","45","0","45"
"252","303","Broadway & Cornelia Ave","41.945529","-87.646439","151","0","151"
"253","304","Halsted St & Waveland Ave","41.949074","-87.648636","187","0","187"
"254","305","Western Ave & Division St","41.902893","-87.687275","73","0","73"
"255","306","Sheridan Rd & Buena Ave","41.958494","-87.654966","97","0","97"
"256","307","Southport Ave & Clybourn Ave","41.920771","-87.663712","123","0","123"
"257","308","Seeley Ave & Roscoe St","41.943403","-87.679618","35","0","35"
"258","309","Leavitt St & Armitage Ave","41.917805","-87.682437","48","0","48"
"259","310","Damen Ave & Charleston St","41.920082","-87.677855","73","0","73"
"260","311","Lincoln Ave & Eastwood Ave","41.968885","-87.684001","49","0","49"
"261","312","Clarendon Ave & Gordon Ter","41.957866524","-87.649505138","107","0","107"
"262","313","Lakeview Ave & Fullerton Pkwy","41.925858","-87.638973","131","0","131"
"263","314","Ravenswood Ave & Berteau Ave","41.957921","-87.673567","54","0","54"
"264","315","Leavitt St & Hirsch St","41.912919","-87.664169","66","0","66"
"265","316","Damen Ave & Sunnyside Ave","41.96325","-87.679258","41","0","41"
"266","317","Wood St & Taylor St","41.869265218","-87.67373085","173","0","173"
"267","318","Southport Ave & Irving Park Rd","41.954177","-87.664358","102","0","102"
"268","319","Greenview Ave & Diversey Pkwy","41.932589634","-87.665936351","30","0","30"
"269","320","Loomis St & Lexington St","41.872187","-87.661501","42","0","42"
"270","321","Wabash Ave & 8th St","41.870769","-87.625734","204","0","204"
"271","322","Kimbark Ave & 53rd St","41.799568","-87.594747","48","0","48"
"272","323","Sheridan Rd & Lawrence Ave","41.969517","-87.654691","28","0","28"
"273","324","Stockton Dr & Wrightwood Ave","41.93132","-87.638742","38","0","38"
"274","325","Clark St & Winnemac Ave","41.97334764","-87.667855471","136","0","136"
"275","326","Clark St & Leland Ave","41.967096","-87.667429","60","0","60"
"276","327","Sheffield Ave & Webster Ave","41.92154","-87.653818","142","0","142"
"277","328","Ellis Ave & 58th St","41.788746","-87.601334","103","0","103"
"278","329","Lake Shore Dr & Diversey Pkwy","41.932588","-87.636427","62","0","62"
"279","330","Lincoln Ave & Addison St","41.946176","-87.673308","30","0","30"
"280","331","Halsted St & Blackhawk St","41.909668","-87.648128","136","0","136"
"281","332","Halsted St & Diversey Pkwy","41.93314","-87.64776","154","0","154"
"282","333","Ashland Ave & Blackhawk St","41.907066","-87.667252","85","0","85"
"283","334","Lake Shore Dr & Belmont Ave","41.940775","-87.639192","95","0","95"
"284","335","Calumet Ave & 35th St","41.831379","-87.618034","10","0","10"
"285","336","Cottage Grove Ave & 47th St","41.809855","-87.606755","7","0","7"
"286","337","Clark St & Chicago Ave","41.89675","-87.63089","156","0","156"
"287","338","Calumet Ave & 18th St","41.857611","-87.619407","179","0","179"
"288","339","Emerald Ave & 31st St","41.838198","-87.645143","46","0","46"
"289","340","Clark St & Wrightwood Ave","41.929546","-87.643118","209","0","209"
"290","341","Adler Planetarium","41.866095","-87.607267","68","0","68"
"291","342","Wolcott Ave & Polk St","41.871262","-87.673688","180","0","180"
"292","343","Racine Ave & Wrightwood Ave","41.928887","-87.658971","88","0","88"
"293","344","Wolcott Ave & Lawrence Ave","41.96909","-87.674237","104","0","104"
"294","345","Lake Park Ave & 56th St","41.793242","-87.587782","83","0","83"
"295","346","Ada St & Washington Blvd","41.88283","-87.661206","196","0","196"
"296","347","Ashland Ave & Grace St","41.950687","-87.6687","97","0","97"
"297","349","Halsted St & Wrightwood Ave","41.929143","-87.649077","123","0","123"
"298","350","Ashland Ave & Chicago Ave","41.895974323","-87.667725384","67","0","67"
"299","351","Cottage Grove Ave & 51st St","41.803038","-87.606615","0","0","0"
