"","station_id","station_name","lat","long","total","electric","classic"
"1","2","Buckingham Fountain","41.876535194","-87.620472908","299","0","299"
"2","3","Shedd Aquarium","41.867225957","-87.61535539","1575","0","1575"
"3","4","Burnham Harbor","41.856268","-87.613348","831","0","831"
"4","5","State St & Harrison St","41.874053","-87.627716","669","0","669"
"5","6","Dusable Harbor","41.886976","-87.612813","830","0","830"
"6","7","Field Blvd & South Water St","41.886349063","-87.617516547","788","0","788"
"7","9","Leavitt St & Archer Ave","41.82879202","-87.680604459","64","0","64"
"8","11","Jeffery Blvd & 71st St","41.766638237","-87.576450114","24","0","24"
"9","12","South Shore Dr & 71st St","41.766409457","-87.565687572","39","0","39"
"10","13","Wilton Ave & Diversey Pkwy","41.932418","-87.652705","1465","0","1465"
"11","14","Morgan St & 18th St","41.858086","-87.651073","458","0","458"
"12","15","Racine Ave & 18th St","41.858166","-87.656495","529","0","529"
"13","16","Paulina Ave & North Ave","41.909854652","-87.66993016","602","0","602"
"14","17","Honore St & Division St","41.903119","-87.673935","697","0","697"
"15","18","Wacker Dr & Washington St","41.883143364","-87.637242079","2429","0","2429"
"16","19","Loomis St & Taylor St (*)","41.868968","-87.659141","1369","0","1369"
"17","20","Sheffield Ave & Kingsbury St","41.910522","-87.653106","1010","0","1010"
"18","21","Aberdeen St & Jackson Blvd","41.87772613","-87.65478743","1177","0","1177"
"19","22","May St & Taylor St","41.8694821","-87.6554864","1360","0","1360"
"20","23","Orleans St & Elm St (*)","41.902924","-87.637715","460","0","460"
"21","24","Fairbanks Ct & Grand Ave","41.891847372","-87.620580196","2209","0","2209"
"22","25","Michigan Ave & Pearson St","41.89766","-87.62351","1026","0","1026"
"23","26","McClurg Ct & Illinois St","41.890847041","-87.618616819","1921","0","1921"
"24","27","Larrabee St & North Ave","41.91021","-87.6435","481","0","481"
"25","28","Larrabee St & Menomonee St","41.91468","-87.64332","570","0","570"
"26","29","Noble St & Milwaukee Ave","41.90068","-87.6626","788","0","788"
"27","30","Ashland Ave & Augusta Blvd","41.899643","-87.6677","643","0","643"
"28","31","Franklin St & Chicago Ave","41.896746973","-87.635667622","1892","0","1892"
"29","32","Racine Ave & Congress Pkwy","41.87464","-87.65703","851","0","851"
"30","33","State St & Van Buren St","41.877181","-87.627844","1421","0","1421"
"31","34","Cannon Dr & Fullerton Ave","41.926755988","-87.634428785","301","0","301"
"32","35","Streeter Dr & Grand Ave","41.892278","-87.612043","2936","0","2936"
"33","36","Franklin St & Jackson Blvd","41.877707956","-87.635321141","2585","0","2585"
"34","37","Dearborn St & Adams St","41.879356359","-87.629791036","1705","0","1705"
"35","38","Clark St & Lake St","41.886020828","-87.630876058","2162","0","2162"
"36","39","Wabash Ave & Adams St","41.879472352","-87.625688606","1575","0","1575"
"37","40","LaSalle St & Adams St","41.879344373","-87.631985221","1366","0","1366"
"38","41","Federal St & Polk St","41.872077633","-87.629543773","1549","0","1549"
"39","42","Wabash Ave & Cermak Rd","41.852619","-87.626488","285","0","285"
"40","43","Michigan Ave & Washington St","41.883984065","-87.624683976","4189","0","4189"
"41","44","State St & Randolph St","41.884621073","-87.627834231","2311","0","2311"
"42","45","Michigan Ave & Congress Pkwy","41.876243","-87.624426","838","0","838"
"43","46","Wells St & Walton St","41.89993001","-87.63443007","838","0","838"
"44","47","State St & Kinzie St","41.889187","-87.627754","2119","0","2119"
"45","48","Larrabee St & Kingsbury St","41.897764","-87.642884","3241","0","3241"
"46","49","Dearborn St & Monroe St","41.881319815","-87.629520919","2883","0","2883"
"47","50","Clark St & Congress Pkwy","41.875932666","-87.630584536","1353","0","1353"
"48","51","Clark St & Randolph St","41.884576228","-87.63188991","2233","0","2233"
"49","52","Michigan Ave & Lake St","41.886024","-87.624117","2350","0","2350"
"50","53","LaSalle (Wells) St & Huron St","41.894722","-87.634362","1863","0","1863"
"51","54","Ogden Ave & Chicago Ave","41.896362458","-87.654061273","953","0","953"
"52","55","Halsted St & Roosevelt Rd","41.867324","-87.648625","693","0","693"
"53","56","Desplaines St & Kinzie St","41.888716036","-87.644447853","2154","0","2154"
"54","57","Clinton St & Roosevelt Rd","41.867117783","-87.641087959","665","0","665"
"55","58","Marshfield Ave & Cortland St","41.916433429","-87.666746378","1832","0","1832"
"56","59","Wabash Ave & Roosevelt Rd","41.867227","-87.625961","2474","0","2474"
"57","60","Dayton St & North Ave","41.910578035","-87.649421929","1220","0","1220"
"58","61","Wood St & Milwaukee Ave","41.907655","-87.672552","966","0","966"
"59","62","McCormick Place","41.851375173","-87.618834649","516","0","516"
"60","66","Clinton St & Lake St","41.885637","-87.641823","3300","0","3300"
"61","67","Sheffield Ave & Fullerton Ave","41.925601882","-87.653708042","1811","0","1811"
"62","68","Clinton St & Tilden St","41.875885","-87.640795","1077","0","1077"
"63","69","Damen Ave & Pierce Ave","41.909396007","-87.677691929","1703","0","1703"
"64","71","Morgan St & Lake St","41.885779252","-87.65102461","2235","0","2235"
"65","72","Wabash Ave & 16th St","41.860384","-87.625813","1147","0","1147"
"66","73","Jefferson St & Monroe St","41.880329634","-87.642745972","1074","0","1074"
"67","74","Kingsbury St & Erie St","41.893808056","-87.641697228","2529","0","2529"
"68","75","Canal St & Jackson Blvd","41.877245","-87.639366","1371","0","1371"
"69","76","Lake Shore Dr & Monroe St","41.880958","-87.616743","1480","0","1480"
"70","77","Clinton St & Madison St","41.882242","-87.641066","7318","0","7318"
"71","80","Aberdeen St & Monroe St","41.880419","-87.655519","1211","0","1211"
"72","81","Daley Center Plaza","41.884241","-87.629634","3862","0","3862"
"73","84","Milwaukee Ave & Grand Ave","41.891578","-87.648384","1741","0","1741"
"74","85","Michigan Ave & Oak St","41.90096039","-87.62377664","1450","0","1450"
"75","86","Eckhart Park","41.89637337","-87.66098386","726","0","726"
"76","87","Racine Ave & Fullerton Ave","41.92556258","-87.65840426","764","0","764"
"77","88","Racine Ave & Randolph St","41.884069","-87.656853","944","0","944"
"78","89","Financial Pl & Congress Pkwy","41.875023628","-87.633094043","1811","0","1811"
"79","90","Millennium Park","41.8810317","-87.62408432","2271","0","2271"
"80","91","Clinton St & Washington Blvd","41.88338","-87.64117","6255","0","6255"
"81","92","Carpenter St & Huron St","41.894556","-87.653449","618","0","618"
"82","93","Sheffield Ave & Willow St","41.913688","-87.652855","1036","0","1036"
"83","94","Clark St & Armitage Ave","41.918306","-87.636282","1841","0","1841"
"84","95","Stony Island Ave & 64th St","41.778881","-87.586647","20","0","20"
"85","96","Desplaines St & Randolph St","41.88461619","-87.644570585","1178","0","1178"
"86","97","Field Museum","41.865312","-87.617867","675","0","675"
"87","98","LaSalle St & Washington St","41.882664","-87.63253","1954","0","1954"
"88","99","Lake Shore Dr & Ohio St","41.89259212","-87.617289126","1106","0","1106"
"89","100","Orleans St & Merchandise Mart Plaza","41.888243","-87.63639","3316","0","3316"
"90","101","63rd St Beach","41.780910964","-87.576323748","20","0","20"
"91","102","Stony Island Ave & 67th St","41.773458499","-87.585339739","25","0","25"
"92","103","Clinton St & Polk St (*)","41.871466518","-87.640949133","282","0","282"
"93","106","State St & Pearson St","41.897448","-87.628722","1317","0","1317"
"94","107","Desplaines St & Jackson Blvd","41.878118901","-87.643947601","1294","0","1294"
"95","108","Halsted St & Polk St","41.87184","-87.64664","1385","0","1385"
"96","109","900 W Harrison St","41.874754","-87.649807","947","0","947"
"97","110","Dearborn St & Erie St","41.893992","-87.629318","2718","0","2718"
"98","111","Sedgwick St & Huron St","41.894666","-87.638437","1199","0","1199"
"99","112","Green St & Randolph St","41.883181306","-87.648724616","1396","0","1396"
"100","113","Bissell St & Armitage Ave","41.918018142","-87.652181983","1166","0","1166"
"101","114","Sheffield Ave & Waveland Ave","41.949399","-87.654529","797","0","797"
"102","115","Sheffield Ave & Wellington Ave","41.936253483","-87.652662098","1233","0","1233"
"103","116","Western Ave & Winnebago Ave","41.91552","-87.687022","912","0","912"
"104","117","Wilton Ave & Belmont Ave","41.94018","-87.65304","1755","0","1755"
"105","118","Sedgwick St & North Ave","41.911386","-87.638677","1212","0","1212"
"106","119","Ashland Ave & Lake St","41.88592","-87.66717","459","0","459"
"107","120","Wentworth Ave & Archer Ave","41.853084557","-87.631931305","516","0","516"
"108","121","Blackstone Ave & Hyde Park Blvd","41.802562","-87.590368","322","0","322"
"109","122","Ogden Ave & Congress Pkwy","41.87501","-87.67328","214","0","214"
"110","123","California Ave & Milwaukee Ave","41.922695","-87.697153","1099","0","1099"
"111","124","Damen Ave & Cullerton St","41.854966519","-87.675699592","197","0","197"
"112","125","Rush St & Hubbard St","41.890173","-87.626185","1716","0","1716"
"113","126","Clark St & North Ave","41.911974","-87.631942","785","0","785"
"114","127","Lincoln Ave & Fullerton Ave","41.924161029","-87.646380365","950","0","950"
"115","128","Damen Ave & Chicago Ave","41.895769","-87.67722","1092","0","1092"
"116","129","Blue Island Ave & 18th St","41.857556","-87.661535","562","0","562"
"117","130","Damen Ave & Division St","41.903266","-87.678435","964","0","964"
"118","131","Lincoln Ave & Belmont Ave","41.939365","-87.668385","679","0","679"
"119","132","Wentworth Ave & 24th St","41.850083693","-87.632140517","67","0","67"
"120","133","Kingsbury St & Kinzie St","41.889176833","-87.638505772","4507","0","4507"
"121","134","Peoria St & Jackson Blvd","41.877641596","-87.649617791","1974","0","1974"
"122","135","Halsted St & 21st St","41.853779811","-87.646602988","110","0","110"
"123","136","Racine Ave & 13th St","41.865054","-87.656959","195","0","195"
"124","137","Morgan Ave & 14th Pl","41.862378","-87.651062","555","0","555"
"125","138","Clybourn Ave & Division St","41.904613","-87.640552","850","0","850"
"126","140","Dearborn Pkwy & Delaware Pl","41.898969","-87.629912","1905","0","1905"
"127","141","Clark St & Lincoln Ave","41.915689","-87.6346","1436","0","1436"
"128","142","McClurg Ct & Erie St","41.894503","-87.617854","2052","0","2052"
"129","143","Sedgwick St & Webster Ave","41.922167","-87.638888","1130","0","1130"
"130","144","Larrabee St & Webster Ave","41.921822","-87.64414","1095","0","1095"
"131","145","Mies van der Rohe Way & Chestnut St","41.898586651","-87.621915226","1740","0","1740"
"132","146","Loomis St & Jackson Blvd","41.877945","-87.662007","676","0","676"
"133","147","Indiana Ave & 26th St","41.845687","-87.622481","188","0","188"
"134","148","State St & 33rd St","41.834734","-87.625813","1045","0","1045"
"135","149","Calumet Ave & 33rd St","41.8349","-87.61793","524","0","524"
"136","150","Fort Dearborn Dr & 31st St","41.838556","-87.608218","252","0","252"
"137","152","Lincoln Ave & Diversey Pkwy","41.932225","-87.658617","720","0","720"
"138","153","Southport Ave & Wellington Ave","41.935733","-87.663576","1251","0","1251"
"139","154","Southport Ave & Belmont Ave","41.93947775","-87.663747668","460","0","460"
"140","156","Clark St & Wellington Ave","41.936496822","-87.647538658","1195","0","1195"
"141","157","Lake Shore Dr & Wellington Ave","41.936688449","-87.636829019","678","0","678"
"142","158","Milwaukee Ave & Wabansia Ave","41.912616","-87.681391","765","0","765"
"143","159","Claremont Ave & Hirsch St","41.907781","-87.685854","318","0","318"
"144","160","Campbell Ave & North Ave","41.910535","-87.689556","392","0","392"
"145","161","Rush St & Superior St","41.895764746","-87.625908033","1410","0","1410"
"146","162","Damen Ave & Wellington Ave","41.93588","-87.67842","273","0","273"
"147","163","Damen Ave & Clybourn Ave","41.931931","-87.677856","311","0","311"
"148","164","Franklin St & Lake St","41.885837","-87.6355","1853","0","1853"
"149","165","Clark St & Grace St","41.95078","-87.659172","600","0","600"
"150","166","Ashland Ave & Wrightwood Ave","41.92883","-87.668507","436","0","436"
"151","167","Damen Ave & Coulter St","41.8492","-87.67564","123","0","123"
"152","168","Michigan Ave & 14th St","41.864059","-87.623727","1003","0","1003"
"153","169","Canal St & Harrison St","41.874255","-87.639573","397","0","397"
"154","170","Clinton St & 18th St","41.85795","-87.640826","530","0","530"
"155","171","May St & Cullerton St","41.855136","-87.654127","273","0","273"
"156","172","Rush St & Cedar St","41.902308701","-87.627690528","1159","0","1159"
"157","173","Mies van der Rohe Way & Chicago Ave","41.896944626","-87.621757686","1534","0","1534"
"158","174","Canal St & Madison St","41.882091","-87.639833","4293","0","4293"
"159","175","Wells St & Polk St","41.872596","-87.633502","1077","0","1077"
"160","176","Clark St & Elm St","41.902973","-87.63128","2272","0","2272"
"161","177","Theater on the Lake","41.926277","-87.630834","1472","0","1472"
"162","178","State St & 19th St","41.856594","-87.627542","223","0","223"
"163","179","MLK Jr Dr & Oakwood Blvd","41.8246","-87.61678","60","0","60"
"164","180","Ritchie Ct & Banks St","41.906866","-87.626217","701","0","701"
"165","181","LaSalle St & Illinois St","41.890762","-87.631697","2933","0","2933"
"166","182","Wells St & Elm St","41.903222","-87.634324","1287","0","1287"
"167","183","Damen Ave & Augusta Blvd","41.901315","-87.677409","745","0","745"
"168","184","State St & 35th St","41.831036314","-87.626797557","327","0","327"
"169","185","Stave St & Armitage Ave","41.917741","-87.691392","173","0","173"
"170","186","Ogden Ave & Race Ave","41.891795","-87.658751","647","0","647"
"171","188","Greenview Ave & Fullerton Ave","41.92533","-87.6658","618","0","618"
"172","190","Southport Ave & Wrightwood Ave","41.928773","-87.663913","629","0","629"
"173","191","Canal St & Monroe St (*)","41.88169","-87.63953","1920","0","1920"
"174","192","Canal St & Adams St","41.879255","-87.639904","9044","0","9044"
"175","193","State St & 29th St","41.841707","-87.626938","32","0","32"
"176","194","Wabash Ave & Wacker Pl","41.886875","-87.62603","1402","0","1402"
"177","195","Columbus Dr & Randolph St","41.884728","-87.619521","3317","0","3317"
"178","196","Cityfront Plaza Dr & Pioneer Ct","41.890573","-87.622072","1569","0","1569"
"179","197","Michigan Ave & Madison St","41.882134","-87.625125","1252","0","1252"
"180","198","Green St & Madison St","41.881892","-87.648789","1908","0","1908"
"181","199","Wabash Ave & Grand Ave","41.891466","-87.626761","1963","0","1963"
"182","200","MLK Jr Dr & 47th St","41.809851","-87.616279","24","0","24"
"183","201","Indiana Ave & 40th St","41.82168","-87.6216","20","0","20"
"184","202","Halsted St & 18th St","41.85750568","-87.645991445","243","0","243"
"185","203","Western Ave & 21st St","41.854109","-87.685838","181","0","181"
"186","204","Prairie Ave & Garfield Blvd","41.794853","-87.618691","276","0","276"
"187","205","Paulina St & 18th St","41.857901","-87.668745","321","0","321"
"188","206","Halsted St & Archer Ave","41.847203","-87.646795","177","0","177"
"189","207","Emerald Ave & 28th St","41.84358","-87.645368","176","0","176"
"190","208","Ashland Ave & 21st St","41.854914576","-87.663559914","160","0","160"
"191","209","Normal Ave & Archer Ave","41.849527","-87.640591","112","0","112"
"192","210","Ashland Ave & Division St","41.90345","-87.667747","1520","0","1520"
"193","211","St. Clair St & Erie St","41.894345137","-87.622798383","2983","0","2983"
"194","212","Orleans St & Ohio St","41.889906","-87.634266","1559","0","1559"
"195","213","Leavitt St & North Ave","41.910509367","-87.682389021","432","0","432"
"196","214","Damen Ave & Grand Ave","41.891264346","-87.676842213","550","0","550"
"197","215","Damen Ave & Madison St","41.88137","-87.67493","240","0","240"
"198","216","California Ave & Division St","41.903029","-87.697474","170","0","170"
"199","217","Racine Ave (May St) & Fulton St","41.886616486","-87.658039927","947","0","947"
"200","218","Wells St & 19th St","41.856802","-87.633879","77","0","77"
"201","219","Damen Ave & Cortland St","41.915983","-87.677335","804","0","804"
"202","220","Hampden Ct & Diversey Pkwy","41.931248","-87.644336","1224","0","1224"
"203","222","Milwaukee Ave & Rockwell St","41.920195562","-87.692659199","260","0","260"
"204","223","Clifton Ave & Armitage Ave","41.918216","-87.656936","841","0","841"
"205","224","Halsted St & Willow St","41.913865","-87.648755","523","0","523"
"206","225","Halsted St & Dickens Ave","41.919936","-87.64883","913","0","913"
"207","226","Racine Ave & Belmont Ave","41.939743","-87.658865","757","0","757"
"208","227","Southport Ave & Waveland Ave","41.94815","-87.66394","1125","0","1125"
"209","228","Damen Ave & Melrose Ave","41.9406","-87.6785","238","0","238"
"210","229","Southport Ave & Roscoe St","41.943739","-87.66402","1145","0","1145"
"211","230","Lincoln Ave & Roscoe St","41.94379115","-87.671257854","994","0","994"
"212","231","Sheridan Rd & Montrose Ave","41.96167","-87.65464","773","0","773"
"213","232","Pine Grove Ave & Waveland Ave","41.949472741","-87.646452785","971","0","971"
"214","233","Sangamon St & Washington Blvd (*)","41.883165","-87.6511","1194","0","1194"
"215","234","Clark St & Montrose Ave","41.961588","-87.666036","375","0","375"
"216","236","Sedgwick St & Schiller St","41.907626","-87.638566","230","0","230"
"217","237","MLK Jr Dr & 29th St","41.842052","-87.617","899","0","899"
"218","238","Ravenswood Ave & Montrose Ave (*)","41.961406","-87.676169","403","0","403"
"219","239","Western Ave & Leland Ave","41.966399802","-87.688704282","545","0","545"
"220","240","Sheridan Rd & Irving Park Rd","41.954245","-87.654406","1416","0","1416"
"221","241","Morgan St & Polk St","41.871737","-87.65103","2272","0","2272"
"222","242","Damen Ave & Leland Ave","41.967094","-87.679028","520","0","520"
"223","243","Lincoln Ave & Leavitt St","41.963004","-87.684781","373","0","373"
"224","244","Ravenswood Ave & Irving Park Rd","41.95469","-87.67393","541","0","541"
"225","245","Clarendon Ave & Junior Ter","41.961004","-87.649603","337","0","337"
"226","246","Ashland Ave & Belle Plaine Ave","41.956057","-87.668835","256","0","256"
"227","247","Shore Dr & 55th St","41.795212","-87.580715","553","0","553"
"228","248","Woodlawn Ave & 55th St","41.795264","-87.596471","459","0","459"
"229","249","Montrose Harbor","41.963982","-87.638181","250","0","250"
"230","250","Ashland Ave & Wellington Ave","41.936083","-87.669807","324","0","324"
"231","251","Clarendon Ave & Leland Ave","41.967968","-87.650001","273","0","273"
"232","252","Greenwood Ave & 47th St","41.809835","-87.599383","146","0","146"
"233","253","Clifton Ave & Lawrence Ave","41.968812","-87.657659","460","0","460"
"234","254","Pine Grove Ave & Irving Park Rd","41.954383","-87.648043","868","0","868"
"235","255","Indiana Ave & Roosevelt Rd","41.867888","-87.623041","1913","0","1913"
"236","256","Broadway & Sheridan Rd","41.952833","-87.649993","588","0","588"
"237","257","Lincoln Ave & Waveland Ave","41.948797","-87.675278","398","0","398"
"238","258","Logan Blvd & Elston Ave","41.929465","-87.684158","493","0","493"
"239","259","California Ave & Francis Pl","41.918491154","-87.697422802","308","0","308"
"240","260","Kedzie Ave & Milwaukee Ave","41.929567","-87.707857","896","0","896"
"241","261","Hermitage Ave & Polk St","41.871514","-87.669886","825","0","825"
"242","262","Halsted St & 37th St","41.827059","-87.64572","66","0","66"
"243","263","Rhodes Ave & 32nd St","41.836208","-87.613533","102","0","102"
"244","264","Stetson Ave & South Water St","41.886835","-87.62232","1621","0","1621"
"245","265","Cottage Grove Ave & Oakwood Blvd","41.822985","-87.6071","67","0","67"
"246","267","Lake Park Ave & 47th St","41.809443","-87.591875","90","0","90"
"247","268","Lake Shore Dr & North Blvd","41.911722","-87.626804","1240","0","1240"
"248","270","Stony Island Ave & 75th St","41.75866967","-87.586882871","35","0","35"
"249","271","Cottage Grove Ave & 43rd St","41.816499","-87.606582","7","0","7"
"250","272","Indiana Ave & 31st St","41.838842","-87.621857","398","0","398"
"251","273","Michigan Ave & 18th St","41.857813","-87.62455","1108","0","1108"
"252","274","Racine Ave & 15th St","41.861267","-87.656625","248","0","248"
"253","275","Ashland Ave & 13th St","41.865234","-87.666507","297","0","297"
"254","276","California Ave & North Ave","41.91044","-87.6972","181","0","181"
"255","277","Ashland Ave & Grand Ave","41.891072","-87.666611","380","0","380"
"256","278","Wallace St & 35th St","41.83101433","-87.641183585","228","0","228"
"257","279","Halsted St & 35th St (*)","41.830661","-87.647172","134","0","134"
"258","280","Morgan St & 31st St","41.8378","-87.65114","213","0","213"
"259","281","Western Ave & 24th St","41.84847","-87.685109","60","0","60"
"260","282","Halsted St & Maxwell St","41.864883","-87.647071","842","0","842"
"261","283","LaSalle St & Jackson Blvd","41.878166","-87.631929","2739","0","2739"
"262","284","Michigan Ave & Jackson Blvd","41.87785","-87.62408","1463","0","1463"
"263","285","Wood St & Hubbard St","41.889899","-87.671473","401","0","401"
"264","286","Franklin St & Quincy St","41.879434091","-87.635504007","1833","0","1833"
"265","287","Franklin St & Monroe St","41.880317","-87.635185","4030","0","4030"
"266","288","Larrabee St & Armitage Ave","41.918084","-87.643749","618","0","618"
"267","289","Wells St & Concord Ln","41.912133","-87.634656","2036","0","2036"
"268","290","Kedzie Ave & Palmer Ct","41.921525","-87.707322","411","0","411"
"269","291","Wells St & Evergreen Ave","41.906724","-87.63483","1120","0","1120"
"270","292","Southport Ave & Clark St","41.957081","-87.664199","239","0","239"
"271","293","Broadway & Wilson Ave","41.965221","-87.658139","411","0","411"
"272","294","Broadway & Berwyn Ave","41.978353","-87.659753","625","0","625"
"273","295","Broadway & Argyle St","41.973815","-87.65966","530","0","530"
"274","296","Broadway & Belmont Ave","41.940106","-87.645451","960","0","960"
"275","297","Paulina St & Montrose Ave","41.961507","-87.671387","212","0","212"
"276","298","Lincoln Ave & Belle Plaine Ave","41.956003551","-87.680161446","357","0","357"
"277","299","Halsted St & Roscoe St","41.94367","-87.64895","994","0","994"
"278","300","Broadway & Barry Ave","41.937582316","-87.644097805","1584","0","1584"
"279","301","Clark St & Schiller St","41.907993","-87.631501","1092","0","1092"
"280","302","Sheffield Ave & Wrightwood Ave","41.928712","-87.653833","694","0","694"
"281","303","Broadway & Cornelia Ave","41.945529","-87.646439","940","0","940"
"282","304","Broadway & Waveland Ave","41.949074","-87.648636","828","0","828"
"283","305","Western Ave & Division St","41.902893","-87.687275","466","0","466"
"284","306","Sheridan Rd & Buena Ave","41.958494","-87.654966","514","0","514"
"285","307","Southport Ave & Clybourn Ave","41.920771","-87.663712","704","0","704"
"286","308","Seeley Ave & Roscoe St","41.943403","-87.679618","294","0","294"
"287","309","Leavitt St & Armitage Ave","41.917805","-87.682437","403","0","403"
"288","310","Damen Ave & Charleston St","41.920082","-87.677855","322","0","322"
"289","311","Leavitt St & Lawrence Ave","41.968885","-87.684001","243","0","243"
"290","312","Clarendon Ave & Gordon Ter","41.957866524","-87.649505138","868","0","868"
"291","313","Lakeview Ave & Fullerton Pkwy","41.925858","-87.638973","885","0","885"
"292","314","Ravenswood Ave & Berteau Ave","41.957921","-87.673567","423","0","423"
"293","315","Elston Ave & Wabansia Ave","41.912919","-87.664169","498","0","498"
"294","316","Damen Ave & Sunnyside Ave","41.96325","-87.679258","197","0","197"
"295","317","Wood St & Taylor St","41.869265218","-87.67373085","921","0","921"
"296","318","Southport Ave & Irving Park Rd","41.954177","-87.664358","537","0","537"
"297","319","Greenview Ave & Diversey Pkwy","41.932589634","-87.665936351","315","0","315"
"298","320","Loomis St & Lexington St","41.872187","-87.661501","1463","0","1463"
"299","321","Wabash Ave & 9th St","41.870769","-87.625734","1327","0","1327"
"300","322","Kimbark Ave & 53rd St","41.799568","-87.594747","986","0","986"
"301","323","Sheridan Rd & Lawrence Ave","41.969517","-87.654691","293","0","293"
"302","324","Stockton Dr & Wrightwood Ave","41.93132","-87.638742","556","0","556"
"303","325","Clark St & Winnemac Ave","41.97334764","-87.667855471","692","0","692"
"304","326","Clark St & Leland Ave","41.967096","-87.667429","395","0","395"
"305","327","Sheffield Ave & Webster Ave","41.92154","-87.653818","1059","0","1059"
"306","328","Ellis Ave & 58th St","41.788746","-87.601334","884","0","884"
"307","329","Lake Shore Dr & Diversey Pkwy","41.932588","-87.636427","526","0","526"
"308","330","Lincoln Ave & Addison St","41.946176","-87.673308","165","0","165"
"309","331","Halsted St & Blackhawk St (*)","41.909668","-87.648128","1508","0","1508"
"310","332","Halsted St & Diversey Pkwy","41.93314","-87.64776","884","0","884"
"311","333","Ashland Ave & Blackhawk St","41.907066","-87.667252","617","0","617"
"312","334","Lake Shore Dr & Belmont Ave","41.940775","-87.639192","859","0","859"
"313","335","Calumet Ave & 35th St","41.831379","-87.618034","99","0","99"
"314","336","Cottage Grove Ave & 47th St","41.809855","-87.606755","64","0","64"
"315","337","Clark St & Chicago Ave","41.89675","-87.63089","1145","0","1145"
"316","338","Calumet Ave & 18th St","41.857611","-87.619407","641","0","641"
"317","339","Emerald Ave & 31st St","41.838198","-87.645143","353","0","353"
"318","340","Clark St & Wrightwood Ave","41.929546","-87.643118","1502","0","1502"
"319","341","Adler Planetarium","41.866095","-87.607267","996","0","996"
"320","342","Wolcott Ave & Polk St","41.871262","-87.673688","1204","0","1204"
"321","343","Racine Ave & Wrightwood Ave","41.928887","-87.658971","548","0","548"
"322","344","Ravenswood Ave & Lawrence Ave","41.96909","-87.674237","1849","0","1849"
"323","345","Lake Park Ave & 56th St","41.793242","-87.587782","572","0","572"
"324","346","Ada St & Washington Blvd","41.88283","-87.661206","901","0","901"
"325","347","Ashland Ave & Grace St","41.950687","-87.6687","490","0","490"
"326","348","California Ave & 21st St","41.853804066","-87.695742399","82","0","82"
"327","349","Halsted St & Wrightwood Ave","41.929143","-87.649077","1003","0","1003"
"328","350","Ashland Ave & Chicago Ave","41.895974323","-87.667725384","742","0","742"
"329","351","Cottage Grove Ave & 51st St","41.803038","-87.606615","72","0","72"
"330","352","Jeffery Blvd & 67th St","41.773517551","-87.577142826","21","0","21"
"331","353","Clark St & Touhy Ave","42.012560115","-87.674367115","65","0","65"
"332","354","Sheridan Rd & Greenleaf Ave","42.010586563","-87.662412095","144","0","144"
"333","355","South Shore Dr & 67th St","41.773643","-87.567514","24","0","24"
"334","356","Stony Island Ave & 71st St","41.766492937","-87.586460878","20","0","20"
"335","359","Larrabee St & Division St","41.90348607","-87.643353494","1135","0","1135"
"336","364","Larrabee St & Oak St","41.900219493","-87.642985468","1351","0","1351"
"337","365","Halsted St & North Branch St","41.899390285","-87.648544908","290","0","290"
"338","366","Loomis St & Archer Ave","41.84163254","-87.657434953","122","0","122"
"339","367","Racine Ave & 35th St","41.830688565","-87.656210661","53","0","53"
"340","368","Ashland Ave & Archer Ave","41.839208684","-87.665609859","33","0","33"
"341","369","Wood St & 35th St","41.830104654","-87.670298309","17","0","17"
"342","370","Calumet Ave & 21st St","41.854184249","-87.619153741","342","0","342"
"343","373","Kedzie Ave & Chicago Ave","41.895465303","-87.706127884","48","0","48"
"344","374","Western Ave & Walton St","41.898417689","-87.686596016","573","0","573"
"345","375","Sacramento Blvd & Franklin Blvd","41.890468792","-87.702607512","70","0","70"
"346","376","Artesian Ave & Hubbard St","41.88949182","-87.688219365","649","0","649"
"347","377","Kedzie Ave & Lake St","41.884603285","-87.706303744","105","0","105"
"348","378","California Ave & Lake St","41.884453957","-87.696298137","115","0","115"
"349","381","Western Ave & Monroe St","41.879787709","-87.686112808","134","0","134"
"350","382","Western Ave & Congress Pkwy","41.874748851","-87.686445276","146","0","146"
"351","383","Ashland Ave & Harrison St","41.87295","-87.66913","632","0","632"
"352","384","Halsted St & 51st St","41.80183164","-87.645213904","0","0","0"
"353","385","Princeton Ave & Garfield Blvd","41.794982","-87.633124","48","0","48"
"354","386","Halsted St & 56th St","41.792929646","-87.644990057","12","0","12"
"355","388","Halsted St & 63rd St","41.779381142","-87.644620815","35","0","35"
"356","390","Wentworth Ave & 63rd St","41.780079633","-87.629746305","30","0","30"
"357","391","Halsted St & 69th St","41.76906172","-87.644613578","10","0","10"
"358","392","Perry Ave & 69th St","41.76929309","-87.628195929","20","0","20"
"359","393","Calumet Ave & 71st St","41.765508006","-87.616917925","19","0","19"
"360","394","Clark St & 9th St (AMLI)","41.870816","-87.631246","563","0","563"
"361","395","Jeffery Blvd & 76th St","41.757120068","-87.575839359","13","0","13"
"362","396","Yates Blvd & 75th St","41.758768","-87.56644","14","0","14"
"363","397","Saginaw Ave & Exchange Ave",NA,NA,"43","0","43"
"364","398","Rainbow Beach","41.757871448","-87.54938625","4","0","4"
"365","399","South Shore Dr & 74th St","41.76218896","-87.55927465","35","0","35"
"366","400","Cottage Grove Ave & 71st St","41.765719037","-87.604959713","9","0","9"
"367","401","Shields Ave & 28th Pl","41.842733","-87.635491","102","0","102"
"368","402","Shields Ave & 31st St","41.838464","-87.635406","209","0","209"
"369","403","Wentworth Ave & 33rd St","41.834529886","-87.631822981","156","0","156"
"370","405","Wentworth Ave & 35th St","41.830777","-87.632504","184","0","184"
"371","406","Lake Park Ave & 35th St","41.831274235","-87.608799195","141","0","141"
"372","407","State St & Pershing Rd","41.823015238","-87.626568018","10","0","10"
"373","408","Union Ave & Root St","41.819102","-87.643278","32","0","32"
"374","409","Shields Ave & 43rd St","41.816207679","-87.63481935","7","0","7"
"375","410","Prairie Ave & 43rd St","41.816658893","-87.619412462","8","0","8"
"376","411","Halsted St & 47th Pl","41.808133915","-87.645616554","44","0","44"
"377","412","Princeton Ave & 47th St","41.809317709","-87.633449288","27","0","27"
"378","413","Woodlawn Ave & Lake Park Ave","41.81409271","-87.597005148","74","0","74"
"379","414","Canal St & Taylor St","41.870257","-87.639474","982","0","982"
"380","415","Calumet Ave & 51st St","41.802294651","-87.61805358","38","0","38"
"381","416","Dorchester Ave & 49th St","41.805772","-87.592464","101","0","101"
"382","417","Cornell Ave & Hyde Park Blvd","41.802406","-87.586924","567","0","567"
"383","418","Ellis Ave & 53rd St","41.799336263","-87.600958115","700","0","700"
"384","419","Lake Park Ave & 53rd St","41.799494294","-87.586449896","295","0","295"
"385","420","Ellis Ave & 55th St","41.794300621","-87.601449773","1039","0","1039"
"386","421","MLK Jr Dr & 56th St (*)","41.793429457","-87.615853262","18","0","18"
"387","422","DuSable Museum","41.791568011","-87.607852177","115","0","115"
"388","423","University Ave & 57th St","41.791478","-87.599861","1740","0","1740"
"389","424","Museum of Science and Industry","41.79172821","-87.583945009","202","0","202"
"390","425","Harper Ave & 59th St","41.787942813","-87.58831517","275","0","275"
"391","426","Ellis Ave & 60th St","41.785097146","-87.601072761","1123","0","1123"
"392","427","Cottage Grove Ave & 63rd St","41.780600945","-87.605836093","74","0","74"
"393","428","Dorchester Ave & 63rd St","41.780405646","-87.591415989","22","0","22"
"394","429","Cottage Grove Ave & 67th St","41.773720952","-87.60563486","11","0","11"
"395","430","MLK Jr Dr & 63rd St","41.780080637","-87.615942857","2","0","2"
"396","431","Eberhart Ave & 61st St","41.784141693","-87.61330783","30","0","30"
"397","432","Clark St & Lunt Ave","42.009011181","-87.674111724","470","0","470"
"398","433","Kedzie Ave & Harrison St","41.873599675","-87.704870749","11","0","11"
"399","434","Ogden Ave & Roosevelt Rd","41.866501483","-87.68469707","176","0","176"
"400","435","Kedzie Ave & Roosevelt Rd","41.866492782","-87.706496176","3","0","3"
"401","436","Fairfield Ave & Roosevelt Rd","41.866624","-87.694521","20","0","20"
"402","437","Washtenaw Ave & Ogden Ave (*)","41.861930493","-87.693450451","87","0","87"
"403","438","Central Park Ave & Ogden Ave","41.854063504","-87.715117335","25","0","25"
"404","439","Kedzie Ave & 21st St","41.853533632","-87.705073032","37","0","37"
"405","440","Lawndale Ave & 23rd St","41.8481","-87.715068","17","0","17"
"406","441","Kedzie Ave & 24th St","41.848190945","-87.705413746","8","0","8"
"407","442","California Ave & 23rd Pl","41.849109692","-87.695139807","105","0","105"
"408","443","Millard Ave & 26th St","41.844531125","-87.715921998","41","0","41"
"409","444","Albany Ave & 26th St","41.844475014","-87.702013013","14","0","14"
"410","445","California Ave & 26th St","41.843679915","-87.694968581","23","0","23"
"411","446","Western Ave & 28th St","41.841517708","-87.685131441","31","0","31"
"412","447","Glenwood Ave & Morse Ave","42.007971923","-87.665502394","533","0","533"
"413","448","Warren Park East","42.004549622","-87.680666145","61","0","61"
"414","449","Clark St & Columbia Ave","42.004450629","-87.672402405","263","0","263"
"415","450","Warren Park West","42.001785","-87.688829","62","0","62"
"416","451","Sheridan Rd & Loyola Ave","42.00104378","-87.661198243","322","0","322"
"417","452","Western Ave & Granville Ave","41.994161369","-87.689438282","69","0","69"
"418","453","Clark St & Schreiber Ave","41.999251822","-87.671377339","166","0","166"
"419","454","Broadway & Granville Ave","41.994779688","-87.660284535","335","0","335"
"420","455","Maplewood Ave & Peterson Ave","41.990236029","-87.69336964","57","0","57"
"421","456","2112 W Peterson Ave","41.991178","-87.683593","58","0","58"
"422","457","Clark St & Elmdale Ave","41.990860448","-87.66972363","279","0","279"
"423","458","Broadway & Thorndale Ave","41.989742511","-87.660140621","362","0","362"
"424","459","Lakefront Trail & Bryn Mawr Ave",NA,NA,"345","0","345"
"425","460","Clark St & Bryn Mawr Ave","41.983593","-87.669154","486","0","486"
"426","461","Broadway & Ridge Ave","41.984044611","-87.660273829","414","0","414"
"427","462","Ravenswood Ave & Balmoral Ave","41.979762","-87.67753","387","0","387"
"428","463","Clark St & Berwyn Ave","41.978030622","-87.668564916","773","0","773"
"429","464","Damen Ave & Foster Ave","41.975614805","-87.679459039","430","0","430"
"430","465","Marine Dr & Ainslie St","41.9716","-87.650154","230","0","230"
"431","466","Ridge Blvd & Touhy Ave","42.012132277","-87.682912644","88","0","88"
"432","467","Western Ave & Lunt Ave","42.008594397","-87.690492239","96","0","96"
"433","468","Budlong Woods Library","41.983664709","-87.696422561","113","0","113"
"434","469","St. Louis Ave & Balmoral Ave","41.980394235","-87.716114961","106","0","106"
"435","470","Kedzie Ave & Foster Ave","41.975672","-87.709261","137","0","137"
"436","471","Francisco Ave & Foster Ave","41.975632725","-87.701419439","253","0","253"
"437","472","Lincoln Ave & Winona St","41.974911297","-87.692502559","233","0","233"
"438","474","Christiana Ave & Lawrence Ave","41.968354494","-87.711830667","88","0","88"
"439","475","Washtenaw Ave & Lawrence Ave","41.968987","-87.696027","186","0","186"
"440","476","Kedzie Ave & Leland Ave","41.966686362","-87.708051981","135","0","135"
"441","477","Manor Ave & Leland Ave","41.965875","-87.700825","104","0","104"
"442","478","Rockwell St & Eastwood Ave","41.96590014","-87.693638494","332","0","332"
"443","479","Drake Ave & Montrose Ave","41.961154076","-87.716569073","141","0","141"
"444","480","Albany Ave & Montrose Ave","41.961041","-87.705866","101","0","101"
"445","481","California Ave & Montrose Ave","41.961068","-87.695439","123","0","123"
"446","482","Campbell Ave & Montrose Ave","41.961525933","-87.691165041","283","0","283"
"447","483","Avondale Ave & Irving Park Rd","41.953393","-87.732002","148","0","148"
"448","484","Monticello Ave & Irving Park Rd","41.954004839","-87.71912818","107","0","107"
"449","485","Sawyer Ave & Irving Park Rd","41.953586179","-87.7093108","111","0","111"
"450","486","Oakley Ave & Irving Park Rd","41.954340852","-87.686079624","237","0","237"
"451","487","California Ave & Byron St","41.952162193","-87.698051113","182","0","182"
"452","488","Pulaski Rd & Eddy St","41.946264","-87.731023","41","0","41"
"453","489","Drake Ave & Addison St","41.947326","-87.717582","199","0","199"
"454","490","Troy St & Elston Ave","41.945243568","-87.706649901","157","0","157"
"455","491","Talman Ave & Addison St","41.946635831","-87.694614758","182","0","182"
"456","492","Leavitt St & Addison St","41.946655","-87.683359","177","0","177"
"457","493","Oakley Ave & Roscoe St","41.943034","-87.687288","366","0","366"
"458","494","Kedzie Ave & Bryn Mawr Ave","41.982229759","-87.708886564","61","0","61"
"459","495","Keystone Ave & Montrose Ave","41.961108016","-87.728970101","48","0","48"
"460","496","Avers Ave & Belmont Ave","41.939408","-87.723574","55","0","55"
"461","497","Kimball Ave & Belmont Ave","41.939398","-87.711561","121","0","121"
"462","498","California Ave & Fletcher St","41.938428791","-87.698007756","140","0","140"
"463","499","Kosciuszko Park","41.930585371","-87.723777364","156","0","156"
"464","500","Central Park Ave & Elbridge Ave","41.935337283","-87.716889294","77","0","77"
"465","501","Richmond St & Diversey Ave","41.931901969","-87.70119513","181","0","181"
"466","502","California Ave & Altgeld St","41.92669","-87.697668","280","0","280"
"467","503","Drake Ave & Fullerton Ave","41.924815597","-87.714495063","248","0","248"
"468","504","Campbell Ave & Fullerton Ave","41.924632472","-87.689307006","357","0","357"
"469","505","Winchester Ave & Elston Ave","41.92409085","-87.676460075","245","0","245"
"470","506","Spaulding Ave & Armitage Ave","41.917108035","-87.710220963","457","0","457"
"471","507","Humboldt Blvd & Armitage Ave","41.917513394","-87.701808955","388","0","388"
"472","508","Central Park Ave & North Ave","41.909656876","-87.716631952","89","0","89"
"473","509","Troy St & North Ave","41.909769302","-87.705280487","140","0","140"
"474","510","Spaulding Ave & Division St","41.902706594","-87.709219571","113","0","113"
"475","511","Albany Ave & Bloomingdale Ave","41.914026713","-87.705126462","330","0","330"
"476","514","Ridge Blvd & Howard St","42.019276","-87.68452","77","0","77"
"477","515","Paulina St & Howard St","42.019159","-87.673573","358","0","358"
"478","517","Clark St & Jarvis Ave","42.015963","-87.675005","87","0","87"
"479","518","Conservatory Dr & Lake St","41.885502","-87.716866","49","0","49"
"480","519","Wolcott Ave & Fargo Ave","42.016977","-87.677725","27","0","27"
"481","520","Greenview Ave & Jarvis Ave","42.015962","-87.66857","271","0","271"
"482","522","Bosworth Ave & Howard St","42.019537","-87.669563","120","0","120"
"483","523","Eastlake Ter & Rogers Ave","42.020887281","-87.665057927","281","0","281"
"484","524","Austin Blvd & Chicago Ave","41.894887","-87.774704","22","0","22"
"485","525","Glenwood Ave & Touhy Ave","42.012701","-87.666058","114","0","114"
"486","526","Oakley Ave & Touhy Ave","42.012342","-87.688243","66","0","66"
"487","527","Western Ave & Howard St","42.018901","-87.690048","66","0","66"
"488","528","Pulaski Rd & Lake St","41.885409","-87.726491","44","0","44"
"489","529","Cicero Ave & Lake St","41.886841","-87.745261","0","0","0"
"490","530","Laramie Ave & Kinzie St","41.887832","-87.755527","21","0","21"
"491","531","Central Ave & Lake St","41.887664","-87.765469","10","0","10"
"492","532","Austin Blvd & Lake St","41.888059607","-87.774265409","32","0","32"
"493","533","Central Park Blvd & 5th Ave","41.875679","-87.71547","0","0","0"
"494","534","Pulaski Rd & Madison St","41.88085","-87.727907","6","0","6"
"495","535","Pulaski Rd & Congress Pkwy","41.874325","-87.725704","9","0","9"
"496","536","Kostner Ave & Lake St","41.885928","-87.73541","6","0","6"
"497","538","Cicero Ave & Flournoy St","41.872131","-87.746619","0","0","0"
"498","539","Cicero Ave & Quincy St","41.877613","-87.745405","8","0","8"
"499","540","Laramie Ave & Madison St","41.880207","-87.755337","0","0","0"
"500","541","Central Ave & Harrison St","41.872993","-87.764499","13","0","13"
"501","542","Central Ave & Madison St","41.880121","-87.763238","0","0","0"
"502","543","Laramie Ave & Gladys Ave","41.875806","-87.755285","21","0","21"
"503","544","Austin Blvd & Madison St","41.880281","-87.774453","6","0","6"
"504","545","Kostner Ave & Adams St","41.877917","-87.735737","12","0","12"
"505","546","Damen Ave & Pershing Rd","41.823192","-87.676597","23","0","23"
"506","547","Ashland Ave & Pershing Rd","41.823465","-87.665577","24","0","24"
"507","550","Central Ave & Chicago Ave","41.894958","-87.764902","4","0","4"
"508","551","Hoyne Ave & 47th St","41.808227","-87.67718","34","0","34"
"509","552","Ashland Ave & McDowell Ave","41.80887","-87.66454","39","0","39"
"510","553","Elizabeth St & 47th St","41.80839","-87.656526","12","0","12"
"511","554","Damen Ave & 51st St","41.800908","-87.674684","0","0","0"
"512","555","Ashland Ave & 50th St","41.803023","-87.664699","2","0","2"
"513","556","Throop St & 52nd St","41.799659","-87.657195","0","0","0"
"514","558","Ashland Ave & Garfield Blvd","41.792822","-87.664429","2","0","2"
"515","559","Racine Ave & Garfield Blvd","41.794228","-87.655073","0","0","0"
"516","560","Marshfield Ave & 59th St","41.786833","-87.666215","7","0","7"
"517","562","Racine Ave & 61st St","41.783189","-87.654372","2","0","2"
"518","563","Ashland Ave & 63rd St","41.779374","-87.664843","11","0","11"
"519","564","Racine Ave & 65th St","41.775393","-87.654308","44","0","44"
"520","565","Ashland Ave & 66th St","41.774074","-87.663815","0","0","0"
"521","566","Ashland Ave & 69th St",NA,NA,"6","0","6"
"522","567","May St & 69th St","41.768938","-87.652934","8","0","8"
"523","568","Normal Ave & 72nd St","41.75797","-87.63121","2","0","2"
"524","569","Woodlawn Ave & 75th St","41.75916","-87.595751","3","0","3"
"525","570","Evans Ave & 75th St","41.75849","-87.60641","182","0","182"
"526","571","Vernon Ave & 75th St","41.758361","-87.614138","34","0","34"
"527","572","State St & 76th St","41.756971","-87.624621","32","0","32"
"528","573","State St & 79th St","41.750794","-87.624424","54","0","54"
"529","574","Eberhart (Vernon) Ave & 79th St","41.75094","-87.61379","19","0","19"
"530","575","Cottage Grove Ave & 78th St","41.753174","-87.605026","41","0","41"
"531","576","Greenwood Ave & 79th St","41.751294","-87.597552","13","0","13"
"532","577","Stony Island Ave & South Chicago Ave","41.751173","-87.585337","7","0","7"
"533","578","Bennett Ave & 79th St","41.751785","-87.578496","9","0","9"
"534","579","Phillips Ave & 79th St","41.75182","-87.565211","21","0","21"
"535","580","Exchange Ave & 79th St","41.751731","-87.552812","10","0","10"
"536","584","Ellis Ave & 83rd St","41.744123","-87.599034","0","0","0"
"537","585","Cottage Grove Ave & 83rd St","41.743441","-87.604836","7","0","7"
"538","586","MLK Jr Dr & 83rd St","41.743116","-87.6148","2","0","2"
"539","587","Wabash Ave & 83rd St","41.743316","-87.622849","12","0","12"
"540","588","South Chicago Ave & 83rd St","41.743921","-87.575225","0","0","0"
"541","589","Milwaukee Ave & Cuyler Ave","41.954468","-87.749594","40","0","40"
"542","590","Kilbourn Ave & Irving Park Rd","41.953733","-87.740569","54","0","54"
"543","591","Kilbourn Ave & Milwaukee Ave","41.947070894","-87.740008235","34","0","34"
"544","592","Knox Ave & Montrose Ave","41.960631","-87.745359","27","0","27"
"545","593","Halsted St & 59th St","41.787539","-87.644874","2","0","2"
"546","594","Western Blvd & 48th Pl","41.805661","-87.683392","12","0","12"
"547","595","Wabash Ave & 87th St","41.736646","-87.622634","10","0","10"
"548","596","Benson Ave & Church St","42.048214","-87.683485","637","0","637"
"549","597","Chicago Ave & Washington St","42.032562","-87.679101","302","0","302"
"550","598","Elmwood Ave & Austin St","42.025784","-87.684107","107","0","107"
"551","599","Valli Produce - Evanston Plaza","42.039742","-87.699413","40","0","40"
"552","600","Dodge Ave & Church St","42.048308","-87.698224","116","0","116"
"553","601","Central St Metra","42.063598","-87.69873","101","0","101"
"554","602","Central St & Girard Ave","42.064313","-87.686152","103","0","103"
"555","603","Chicago Ave & Sheridan Rd","42.050491","-87.677821","351","0","351"
"556","604","Sheridan Rd & Noyes St (NU)","42.058239","-87.677432","468","0","468"
"557","605","University Library (NU)","42.052939","-87.673447","482","0","482"
"558","619","Keystone Ave & Fullerton Ave","41.92459","-87.72785","40","0","40"
"559","620","Orleans St & Chestnut St (NEXT Apts)","41.898203","-87.637536","693","0","693"
"560","622","California Ave & Cortez St","41.900363","-87.696704","330","0","330"
"561","623","Michigan Ave & 8th St","41.872773","-87.623981","726","0","726"
"562","624","Dearborn St & Van Buren St (*)","41.876268","-87.629155","400","0","400"
"563","625","Chicago Ave & Dempster St","42.034631852","-87.699187696","237","0","237"
