"","station_id","station_name","lat","long","total","electric","classic"
"1","2","Buckingham Fountain","41.876535194","-87.620472908","5149","0","5149"
"2","3","Shedd Aquarium","41.867225957","-87.61535539","10359","0","10359"
"3","4","Burnham Harbor","41.856268","-87.613348","7035","0","7035"
"4","5","State St & Harrison St","41.874053","-87.627716","2150","0","2150"
"5","6","Dusable Harbor","41.886976","-87.612813","8019","0","8019"
"6","7","Field Blvd & South Water St","41.886349063","-87.617516547","3598","0","3598"
"7","9","Leavitt St & Archer Ave","41.82879202","-87.680604459","226","0","226"
"8","11","Jeffery Blvd & 71st St","41.766638237","-87.576450114","84","0","84"
"9","12","South Shore Dr & 71st St","41.766409457","-87.565687572","304","0","304"
"10","13","Wilton Ave & Diversey Pkwy","41.932418","-87.652705","3562","0","3562"
"11","14","Morgan St & 18th St","41.858086","-87.651073","939","0","939"
"12","15","Racine Ave & 18th St","41.858166","-87.656495","1164","0","1164"
"13","16","Paulina Ave & North Ave","41.909854652","-87.66993016","1997","0","1997"
"14","17","Honore St & Division St","41.903119","-87.673935","2148","0","2148"
"15","18","Wacker Dr & Washington St","41.883143364","-87.637242079","4385","0","4385"
"16","19","Loomis St & Taylor St (*)","41.868968","-87.659141","2906","0","2906"
"17","20","Sheffield Ave & Kingsbury St","41.910522","-87.653106","2851","0","2851"
"18","21","Aberdeen St & Jackson Blvd","41.87772613","-87.65478743","2851","0","2851"
"19","22","May St & Taylor St","41.8694821","-87.6554864","3475","0","3475"
"20","23","Orleans St & Elm St (*)","41.902924","-87.637715","1263","0","1263"
"21","24","Fairbanks Ct & Grand Ave","41.891847372","-87.620580196","6032","0","6032"
"22","25","Michigan Ave & Pearson St","41.89766","-87.62351","3610","0","3610"
"23","26","McClurg Ct & Illinois St","41.890847041","-87.618616819","8289","0","8289"
"24","27","Larrabee St & North Ave","41.91021","-87.6435","1373","0","1373"
"25","28","Larrabee St & Menomonee St","41.91468","-87.64332","1661","0","1661"
"26","29","Noble St & Milwaukee Ave","41.90068","-87.6626","2272","0","2272"
"27","30","Ashland Ave & Augusta Blvd","41.899643","-87.6677","1593","0","1593"
"28","31","Franklin St & Chicago Ave","41.896746973","-87.635667622","4116","0","4116"
"29","32","Racine Ave & Congress Pkwy","41.87464","-87.65703","2154","0","2154"
"30","33","State St & Van Buren St","41.877181","-87.627844","3445","0","3445"
"31","34","Cannon Dr & Fullerton Ave","41.926755988","-87.634428785","2774","0","2774"
"32","35","Streeter Dr & Grand Ave","41.892278","-87.612043","36911","0","36911"
"33","36","Franklin St & Jackson Blvd","41.877707956","-87.635321141","5558","0","5558"
"34","37","Dearborn St & Adams St","41.879356359","-87.629791036","3896","0","3896"
"35","38","Clark St & Lake St","41.886020828","-87.630876058","4631","0","4631"
"36","39","Wabash Ave & Adams St","41.879472352","-87.625688606","2979","0","2979"
"37","40","LaSalle St & Adams St","41.879344373","-87.631985221","4855","0","4855"
"38","41","Federal St & Polk St","41.872077633","-87.629543773","3574","0","3574"
"39","42","Wabash Ave & Cermak Rd","41.852619","-87.626488","852","0","852"
"40","43","Michigan Ave & Washington St","41.883984065","-87.624683976","10339","0","10339"
"41","44","State St & Randolph St","41.884621073","-87.627834231","4915","0","4915"
"42","45","Michigan Ave & Congress Pkwy","41.876243","-87.624426","3125","0","3125"
"43","46","Wells St & Walton St","41.89993001","-87.63443007","1844","0","1844"
"44","47","State St & Kinzie St","41.889187","-87.627754","5502","0","5502"
"45","48","Larrabee St & Kingsbury St","41.897764","-87.642884","5635","0","5635"
"46","49","Dearborn St & Monroe St","41.881319815","-87.629520919","4921","0","4921"
"47","50","Clark St & Congress Pkwy","41.875932666","-87.630584536","2878","0","2878"
"48","51","Clark St & Randolph St","41.884576228","-87.63188991","4531","0","4531"
"49","52","Michigan Ave & Lake St","41.886024","-87.624117","5716","0","5716"
"50","53","LaSalle (Wells) St & Huron St","41.894722","-87.634362","4457","0","4457"
"51","54","Ogden Ave & Chicago Ave","41.896362458","-87.654061273","2439","0","2439"
"52","55","Halsted St & Roosevelt Rd","41.867324","-87.648625","1419","0","1419"
"53","56","Desplaines St & Kinzie St","41.888716036","-87.644447853","5304","0","5304"
"54","57","Clinton St & Roosevelt Rd","41.867117783","-87.641087959","2263","0","2263"
"55","58","Marshfield Ave & Cortland St","41.916433429","-87.666746378","4715","0","4715"
"56","59","Wabash Ave & Roosevelt Rd","41.867227","-87.625961","6629","0","6629"
"57","60","Dayton St & North Ave","41.910578035","-87.649421929","3419","0","3419"
"58","61","Wood St & Milwaukee Ave","41.907655","-87.672552","3256","0","3256"
"59","62","McCormick Place","41.851375173","-87.618834649","1662","0","1662"
"60","66","Clinton St & Lake St","41.885637","-87.641823","5713","0","5713"
"61","67","Sheffield Ave & Fullerton Ave","41.925601882","-87.653708042","3788","0","3788"
"62","68","Clinton St & Tilden St","41.875885","-87.640795","2097","0","2097"
"63","69","Damen Ave & Pierce Ave","41.909396007","-87.677691929","5269","0","5269"
"64","71","Morgan St & Lake St","41.885779252","-87.65102461","4605","0","4605"
"65","72","Wabash Ave & 16th St","41.860384","-87.625813","2623","0","2623"
"66","73","Jefferson St & Monroe St","41.880329634","-87.642745972","2281","0","2281"
"67","74","Kingsbury St & Erie St","41.893808056","-87.641697228","5334","0","5334"
"68","75","Canal St & Jackson Blvd","41.877245","-87.639366","2822","0","2822"
"69","76","Lake Shore Dr & Monroe St","41.880958","-87.616743","16444","0","16444"
"70","77","Clinton St & Madison St","41.882242","-87.641066","11779","0","11779"
"71","80","Aberdeen St & Monroe St","41.880419","-87.655519","2943","0","2943"
"72","81","Daley Center Plaza","41.884241","-87.629634","9707","0","9707"
"73","84","Milwaukee Ave & Grand Ave","41.891578","-87.648384","3613","0","3613"
"74","85","Michigan Ave & Oak St","41.90096039","-87.62377664","14371","0","14371"
"75","86","Eckhart Park","41.89637337","-87.66098386","1847","0","1847"
"76","87","Racine Ave & Fullerton Ave","41.92556258","-87.65840426","2096","0","2096"
"77","88","Racine Ave & Randolph St","41.884069","-87.656853","1700","0","1700"
"78","89","Financial Pl & Congress Pkwy","41.875023628","-87.633094043","3268","0","3268"
"79","90","Millennium Park","41.8810317","-87.62408432","11995","0","11995"
"80","91","Clinton St & Washington Blvd","41.88338","-87.64117","12324","0","12324"
"81","92","Carpenter St & Huron St","41.894556","-87.653449","1657","0","1657"
"82","93","Sheffield Ave & Willow St","41.913688","-87.652855","2446","0","2446"
"83","94","Clark St & Armitage Ave","41.918306","-87.636282","7465","0","7465"
"84","95","Stony Island Ave & 64th St","41.778881","-87.586647","93","0","93"
"85","96","Desplaines St & Randolph St","41.88461619","-87.644570585","3010","0","3010"
"86","97","Field Museum","41.865312","-87.617867","4462","0","4462"
"87","98","LaSalle St & Washington St","41.882664","-87.63253","4014","0","4014"
"88","99","Lake Shore Dr & Ohio St","41.89259212","-87.617289126","5119","0","5119"
"89","100","Orleans St & Merchandise Mart Plaza","41.888243","-87.63639","8815","0","8815"
"90","101","63rd St Beach","41.780910964","-87.576323748","284","0","284"
"91","102","Stony Island Ave & 67th St","41.773458499","-87.585339739","44","0","44"
"92","103","Clinton St & Polk St (*)","41.871466518","-87.640949133","747","0","747"
"93","106","State St & Pearson St","41.897448","-87.628722","3256","0","3256"
"94","107","Desplaines St & Jackson Blvd","41.878118901","-87.643947601","2751","0","2751"
"95","108","Halsted St & Polk St","41.87184","-87.64664","2978","0","2978"
"96","109","900 W Harrison St","41.874754","-87.649807","1405","0","1405"
"97","110","Dearborn St & Erie St","41.893992","-87.629318","7937","0","7937"
"98","111","Sedgwick St & Huron St","41.894666","-87.638437","2858","0","2858"
"99","112","Green St & Randolph St","41.883181306","-87.648724616","4217","0","4217"
"100","113","Bissell St & Armitage Ave","41.918018142","-87.652181983","4020","0","4020"
"101","114","Sheffield Ave & Waveland Ave","41.949399","-87.654529","4939","0","4939"
"102","115","Sheffield Ave & Wellington Ave","41.936253483","-87.652662098","3370","0","3370"
"103","116","Western Ave & Winnebago Ave","41.91552","-87.687022","2236","0","2236"
"104","117","Wilton Ave & Belmont Ave","41.94018","-87.65304","5402","0","5402"
"105","118","Sedgwick St & North Ave","41.911386","-87.638677","3725","0","3725"
"106","119","Ashland Ave & Lake St","41.88592","-87.66717","1071","0","1071"
"107","120","Wentworth Ave & Archer Ave","41.853084557","-87.631931305","1832","0","1832"
"108","121","Blackstone Ave & Hyde Park Blvd","41.802562","-87.590368","825","0","825"
"109","122","Ogden Ave & Congress Pkwy","41.87501","-87.67328","530","0","530"
"110","123","California Ave & Milwaukee Ave","41.922695","-87.697153","2786","0","2786"
"111","124","Damen Ave & Cullerton St","41.854966519","-87.675699592","411","0","411"
"112","125","Rush St & Hubbard St","41.890173","-87.626185","4678","0","4678"
"113","126","Clark St & North Ave","41.911974","-87.631942","4026","0","4026"
"114","127","Lincoln Ave & Fullerton Ave","41.924161029","-87.646380365","3275","0","3275"
"115","128","Damen Ave & Chicago Ave","41.895769","-87.67722","2562","0","2562"
"116","129","Blue Island Ave & 18th St","41.857556","-87.661535","1573","0","1573"
"117","130","Damen Ave & Division St","41.903266","-87.678435","2800","0","2800"
"118","131","Lincoln Ave & Belmont Ave","41.939365","-87.668385","1938","0","1938"
"119","132","Wentworth Ave & 24th St","41.850083693","-87.632140517","297","0","297"
"120","133","Kingsbury St & Kinzie St","41.889176833","-87.638505772","8924","0","8924"
"121","134","Peoria St & Jackson Blvd","41.877641596","-87.649617791","3952","0","3952"
"122","135","Halsted St & 21st St","41.853779811","-87.646602988","437","0","437"
"123","136","Racine Ave & 13th St","41.865054","-87.656959","314","0","314"
"124","137","Morgan Ave & 14th Pl","41.862378","-87.651062","1139","0","1139"
"125","138","Clybourn Ave & Division St","41.904613","-87.640552","1776","0","1776"
"126","140","Dearborn Pkwy & Delaware Pl","41.898969","-87.629912","5355","0","5355"
"127","141","Clark St & Lincoln Ave","41.915689","-87.6346","6447","0","6447"
"128","142","McClurg Ct & Erie St","41.894503","-87.617854","4830","0","4830"
"129","143","Sedgwick St & Webster Ave","41.922167","-87.638888","3400","0","3400"
"130","144","Larrabee St & Webster Ave","41.921822","-87.64414","3697","0","3697"
"131","145","Mies van der Rohe Way & Chestnut St","41.898586651","-87.621915226","5554","0","5554"
"132","146","Loomis St & Jackson Blvd","41.877945","-87.662007","1182","0","1182"
"133","147","Indiana Ave & 26th St","41.845687","-87.622481","913","0","913"
"134","148","State St & 33rd St","41.834734","-87.625813","2885","0","2885"
"135","149","Calumet Ave & 33rd St","41.8349","-87.61793","1512","0","1512"
"136","150","Fort Dearborn Dr & 31st St","41.838556","-87.608218","3484","0","3484"
"137","152","Lincoln Ave & Diversey Pkwy","41.932225","-87.658617","2090","0","2090"
"138","153","Southport Ave & Wellington Ave","41.935733","-87.663576","3204","0","3204"
"139","154","Southport Ave & Belmont Ave","41.93947775","-87.663747668","1621","0","1621"
"140","156","Clark St & Wellington Ave","41.936496822","-87.647538658","3527","0","3527"
"141","157","Lake Shore Dr & Wellington Ave","41.936688449","-87.636829019","4669","0","4669"
"142","158","Milwaukee Ave & Wabansia Ave","41.912616","-87.681391","2705","0","2705"
"143","159","Claremont Ave & Hirsch St","41.907781","-87.685854","826","0","826"
"144","160","Campbell Ave & North Ave","41.910535","-87.689556","1003","0","1003"
"145","161","Rush St & Superior St","41.895764746","-87.625908033","3777","0","3777"
"146","162","Damen Ave & Wellington Ave","41.93588","-87.67842","981","0","981"
"147","163","Damen Ave & Clybourn Ave","41.931931","-87.677856","957","0","957"
"148","164","Franklin St & Lake St","41.885837","-87.6355","3628","0","3628"
"149","165","Clark St & Grace St","41.95078","-87.659172","2091","0","2091"
"150","166","Ashland Ave & Wrightwood Ave","41.92883","-87.668507","1114","0","1114"
"151","167","Damen Ave & Coulter St","41.8492","-87.67564","87","0","87"
"152","168","Michigan Ave & 14th St","41.864059","-87.623727","2917","0","2917"
"153","169","Canal St & Harrison St","41.874255","-87.639573","888","0","888"
"154","170","Clinton St & 18th St","41.85795","-87.640826","866","0","866"
"155","171","May St & Cullerton St","41.855136","-87.654127","508","0","508"
"156","172","Rush St & Cedar St","41.902308701","-87.627690528","4045","0","4045"
"157","173","Mies van der Rohe Way & Chicago Ave","41.896944626","-87.621757686","4751","0","4751"
"158","174","Canal St & Madison St","41.882091","-87.639833","8481","0","8481"
"159","175","Wells St & Polk St","41.872596","-87.633502","2171","0","2171"
"160","176","Clark St & Elm St","41.902973","-87.63128","7006","0","7006"
"161","177","Theater on the Lake","41.926277","-87.630834","17625","0","17625"
"162","178","State St & 19th St","41.856594","-87.627542","1095","0","1095"
"163","179","MLK Jr Dr & Oakwood Blvd","41.8246","-87.61678","192","0","192"
"164","180","Ritchie Ct & Banks St","41.906866","-87.626217","2302","0","2302"
"165","181","LaSalle St & Illinois St","41.890762","-87.631697","8162","0","8162"
"166","182","Wells St & Elm St","41.903222","-87.634324","3455","0","3455"
"167","183","Damen Ave & Augusta Blvd","41.901315","-87.677409","2069","0","2069"
"168","184","State St & 35th St","41.831036314","-87.626797557","1457","0","1457"
"169","185","Stave St & Armitage Ave","41.917741","-87.691392","618","0","618"
"170","186","Ogden Ave & Race Ave","41.891795","-87.658751","1870","0","1870"
"171","188","Greenview Ave & Fullerton Ave","41.92533","-87.6658","1772","0","1772"
"172","190","Southport Ave & Wrightwood Ave","41.928773","-87.663913","1592","0","1592"
"173","191","Canal St & Monroe St (*)","41.88169","-87.63953","3477","0","3477"
"174","192","Canal St & Adams St","41.879255","-87.639904","15831","0","15831"
"175","193","State St & 29th St","41.841707","-87.626938","147","0","147"
"176","194","Wabash Ave & Wacker Pl","41.886875","-87.62603","4204","0","4204"
"177","195","Columbus Dr & Randolph St","41.884728","-87.619521","8657","0","8657"
"178","196","Cityfront Plaza Dr & Pioneer Ct","41.890573","-87.622072","3466","0","3466"
"179","197","Michigan Ave & Madison St","41.882134","-87.625125","3106","0","3106"
"180","198","Green St & Madison St","41.881892","-87.648789","4318","0","4318"
"181","199","Wabash Ave & Grand Ave","41.891466","-87.626761","4599","0","4599"
"182","200","MLK Jr Dr & 47th St","41.809851","-87.616279","190","0","190"
"183","201","Indiana Ave & 40th St","41.82168","-87.6216","132","0","132"
"184","202","Halsted St & 18th St","41.85750568","-87.645991445","881","0","881"
"185","203","Western Ave & 21st St","41.854109","-87.685838","388","0","388"
"186","204","Prairie Ave & Garfield Blvd","41.794853","-87.618691","421","0","421"
"187","205","Paulina St & 18th St","41.857901","-87.668745","887","0","887"
"188","206","Halsted St & Archer Ave","41.847203","-87.646795","509","0","509"
"189","207","Emerald Ave & 28th St","41.84358","-87.645368","457","0","457"
"190","208","Ashland Ave & 21st St","41.854914576","-87.663559914","506","0","506"
"191","209","Normal Ave & Archer Ave","41.849527","-87.640591","336","0","336"
"192","210","Ashland Ave & Division St","41.90345","-87.667747","4377","0","4377"
"193","211","St. Clair St & Erie St","41.894345137","-87.622798383","6895","0","6895"
"194","212","Orleans St & Ohio St","41.889906","-87.634266","3672","0","3672"
"195","213","Leavitt St & North Ave","41.910509367","-87.682389021","1518","0","1518"
"196","214","Damen Ave & Grand Ave","41.891264346","-87.676842213","1504","0","1504"
"197","215","Damen Ave & Madison St","41.88137","-87.67493","773","0","773"
"198","216","California Ave & Division St","41.903029","-87.697474","630","0","630"
"199","217","Racine Ave (May St) & Fulton St","41.886616486","-87.658039927","1723","0","1723"
"200","218","Wells St & 19th St","41.856802","-87.633879","383","0","383"
"201","219","Damen Ave & Cortland St","41.915983","-87.677335","2918","0","2918"
"202","220","Hampden Ct & Diversey Pkwy","41.931248","-87.644336","5056","0","5056"
"203","222","Milwaukee Ave & Rockwell St","41.920195562","-87.692659199","747","0","747"
"204","223","Clifton Ave & Armitage Ave","41.918216","-87.656936","2449","0","2449"
"205","224","Halsted St & Willow St","41.913865","-87.648755","1841","0","1841"
"206","225","Halsted St & Dickens Ave","41.919936","-87.64883","2544","0","2544"
"207","226","Racine Ave & Belmont Ave","41.939743","-87.658865","2138","0","2138"
"208","227","Southport Ave & Waveland Ave","41.94815","-87.66394","2880","0","2880"
"209","228","Damen Ave & Melrose Ave","41.9406","-87.6785","806","0","806"
"210","229","Southport Ave & Roscoe St","41.943739","-87.66402","3323","0","3323"
"211","230","Lincoln Ave & Roscoe St","41.94379115","-87.671257854","2558","0","2558"
"212","231","Sheridan Rd & Montrose Ave","41.96167","-87.65464","2746","0","2746"
"213","232","Pine Grove Ave & Waveland Ave","41.949472741","-87.646452785","3787","0","3787"
"214","233","Sangamon St & Washington Blvd (*)","41.883165","-87.6511","2463","0","2463"
"215","234","Clark St & Montrose Ave","41.961588","-87.666036","1286","0","1286"
"216","236","Sedgwick St & Schiller St","41.907626","-87.638566","739","0","739"
"217","237","MLK Jr Dr & 29th St","41.842052","-87.617","3114","0","3114"
"218","238","Ravenswood Ave & Montrose Ave (*)","41.961406","-87.676169","1000","0","1000"
"219","239","Western Ave & Leland Ave","41.966399802","-87.688704282","1600","0","1600"
"220","240","Sheridan Rd & Irving Park Rd","41.954245","-87.654406","3453","0","3453"
"221","241","Morgan St & Polk St","41.871737","-87.65103","4302","0","4302"
"222","242","Damen Ave & Leland Ave","41.967094","-87.679028","1207","0","1207"
"223","243","Lincoln Ave & Leavitt St","41.963004","-87.684781","1225","0","1225"
"224","244","Ravenswood Ave & Irving Park Rd","41.95469","-87.67393","1460","0","1460"
"225","245","Clarendon Ave & Junior Ter","41.961004","-87.649603","1833","0","1833"
"226","246","Ashland Ave & Belle Plaine Ave","41.956057","-87.668835","667","0","667"
"227","247","Shore Dr & 55th St","41.795212","-87.580715","2152","0","2152"
"228","248","Woodlawn Ave & 55th St","41.795264","-87.596471","719","0","719"
"229","249","Montrose Harbor","41.963982","-87.638181","5547","0","5547"
"230","250","Ashland Ave & Wellington Ave","41.936083","-87.669807","1093","0","1093"
"231","251","Clarendon Ave & Leland Ave","41.967968","-87.650001","1205","0","1205"
"232","252","Greenwood Ave & 47th St","41.809835","-87.599383","301","0","301"
"233","253","Clifton Ave & Lawrence Ave","41.968812","-87.657659","1352","0","1352"
"234","254","Pine Grove Ave & Irving Park Rd","41.954383","-87.648043","3091","0","3091"
"235","255","Indiana Ave & Roosevelt Rd","41.867888","-87.623041","7940","0","7940"
"236","256","Broadway & Sheridan Rd","41.952833","-87.649993","1791","0","1791"
"237","257","Lincoln Ave & Waveland Ave","41.948797","-87.675278","1156","0","1156"
"238","258","Logan Blvd & Elston Ave","41.929465","-87.684158","1400","0","1400"
"239","259","California Ave & Francis Pl","41.918491154","-87.697422802","974","0","974"
"240","260","Kedzie Ave & Milwaukee Ave","41.929567","-87.707857","2673","0","2673"
"241","261","Hermitage Ave & Polk St","41.871514","-87.669886","1588","0","1588"
"242","262","Halsted St & 37th St","41.827059","-87.64572","179","0","179"
"243","263","Rhodes Ave & 32nd St","41.836208","-87.613533","1024","0","1024"
"244","264","Stetson Ave & South Water St","41.886835","-87.62232","3472","0","3472"
"245","265","Cottage Grove Ave & Oakwood Blvd","41.822985","-87.6071","500","0","500"
"246","267","Lake Park Ave & 47th St","41.809443","-87.591875","861","0","861"
"247","268","Lake Shore Dr & North Blvd","41.911722","-87.626804","18334","0","18334"
"248","270","Stony Island Ave & 75th St","41.75866967","-87.586882871","54","0","54"
"249","271","Cottage Grove Ave & 43rd St","41.816499","-87.606582","101","0","101"
"250","272","Indiana Ave & 31st St","41.838842","-87.621857","1314","0","1314"
"251","273","Michigan Ave & 18th St","41.857813","-87.62455","2716","0","2716"
"252","274","Racine Ave & 15th St","41.861267","-87.656625","609","0","609"
"253","275","Ashland Ave & 13th St","41.865234","-87.666507","766","0","766"
"254","276","California Ave & North Ave","41.91044","-87.6972","810","0","810"
"255","277","Ashland Ave & Grand Ave","41.891072","-87.666611","1148","0","1148"
"256","278","Wallace St & 35th St","41.83101433","-87.641183585","376","0","376"
"257","279","Halsted St & 35th St (*)","41.830661","-87.647172","494","0","494"
"258","280","Morgan St & 31st St","41.8378","-87.65114","540","0","540"
"259","281","Western Ave & 24th St","41.84847","-87.685109","127","0","127"
"260","282","Halsted St & Maxwell St","41.864883","-87.647071","2185","0","2185"
"261","283","LaSalle St & Jackson Blvd","41.878166","-87.631929","4591","0","4591"
"262","284","Michigan Ave & Jackson Blvd","41.87785","-87.62408","5401","0","5401"
"263","285","Wood St & Hubbard St","41.889899","-87.671473","1051","0","1051"
"264","286","Franklin St & Quincy St","41.879434091","-87.635504007","3052","0","3052"
"265","287","Franklin St & Monroe St","41.880317","-87.635185","9652","0","9652"
"266","288","Larrabee St & Armitage Ave","41.918084","-87.643749","1775","0","1775"
"267","289","Wells St & Concord Ln","41.912133","-87.634656","6854","0","6854"
"268","290","Kedzie Ave & Palmer Ct","41.921525","-87.707322","957","0","957"
"269","291","Wells St & Evergreen Ave","41.906724","-87.63483","4037","0","4037"
"270","292","Southport Ave & Clark St","41.957081","-87.664199","764","0","764"
"271","293","Broadway & Wilson Ave","41.965221","-87.658139","1231","0","1231"
"272","294","Broadway & Berwyn Ave","41.978353","-87.659753","1592","0","1592"
"273","295","Broadway & Argyle St","41.973815","-87.65966","1116","0","1116"
"274","296","Broadway & Belmont Ave","41.940106","-87.645451","3858","0","3858"
"275","297","Paulina St & Montrose Ave","41.961507","-87.671387","665","0","665"
"276","298","Lincoln Ave & Belle Plaine Ave","41.956003551","-87.680161446","1253","0","1253"
"277","299","Halsted St & Roscoe St","41.94367","-87.64895","2830","0","2830"
"278","300","Broadway & Barry Ave","41.937582316","-87.644097805","4858","0","4858"
"279","301","Clark St & Schiller St","41.907993","-87.631501","3791","0","3791"
"280","302","Sheffield Ave & Wrightwood Ave","41.928712","-87.653833","2249","0","2249"
"281","303","Broadway & Cornelia Ave","41.945529","-87.646439","3292","0","3292"
"282","304","Broadway & Waveland Ave","41.949074","-87.648636","2383","0","2383"
"283","305","Western Ave & Division St","41.902893","-87.687275","1310","0","1310"
"284","306","Sheridan Rd & Buena Ave","41.958494","-87.654966","1492","0","1492"
"285","307","Southport Ave & Clybourn Ave","41.920771","-87.663712","1972","0","1972"
"286","308","Seeley Ave & Roscoe St","41.943403","-87.679618","1054","0","1054"
"287","309","Leavitt St & Armitage Ave","41.917805","-87.682437","1215","0","1215"
"288","310","Damen Ave & Charleston St","41.920082","-87.677855","1174","0","1174"
"289","311","Leavitt St & Lawrence Ave","41.968885","-87.684001","777","0","777"
"290","312","Clarendon Ave & Gordon Ter","41.957866524","-87.649505138","2136","0","2136"
"291","313","Lakeview Ave & Fullerton Pkwy","41.925858","-87.638973","4275","0","4275"
"292","314","Ravenswood Ave & Berteau Ave","41.957921","-87.673567","1233","0","1233"
"293","315","Elston Ave & Wabansia Ave","41.912919","-87.664169","1174","0","1174"
"294","316","Damen Ave & Sunnyside Ave","41.96325","-87.679258","790","0","790"
"295","317","Wood St & Taylor St","41.869265218","-87.67373085","1649","0","1649"
"296","318","Southport Ave & Irving Park Rd","41.954177","-87.664358","1506","0","1506"
"297","319","Greenview Ave & Diversey Pkwy","41.932589634","-87.665936351","1085","0","1085"
"298","320","Loomis St & Lexington St","41.872187","-87.661501","3886","0","3886"
"299","321","Wabash Ave & 9th St","41.870769","-87.625734","3434","0","3434"
"300","322","Kimbark Ave & 53rd St","41.799568","-87.594747","1465","0","1465"
"301","323","Sheridan Rd & Lawrence Ave","41.969517","-87.654691","1159","0","1159"
"302","324","Stockton Dr & Wrightwood Ave","41.93132","-87.638742","2820","0","2820"
"303","325","Clark St & Winnemac Ave","41.97334764","-87.667855471","1667","0","1667"
"304","326","Clark St & Leland Ave","41.967096","-87.667429","1223","0","1223"
"305","327","Sheffield Ave & Webster Ave","41.92154","-87.653818","3008","0","3008"
"306","328","Ellis Ave & 58th St","41.788746","-87.601334","1098","0","1098"
"307","329","Lake Shore Dr & Diversey Pkwy","41.932588","-87.636427","3828","0","3828"
"308","330","Lincoln Ave & Addison St","41.946176","-87.673308","724","0","724"
"309","331","Halsted St & Blackhawk St (*)","41.909668","-87.648128","3881","0","3881"
"310","332","Halsted St & Diversey Pkwy","41.93314","-87.64776","2980","0","2980"
"311","333","Ashland Ave & Blackhawk St","41.907066","-87.667252","1969","0","1969"
"312","334","Lake Shore Dr & Belmont Ave","41.940775","-87.639192","5309","0","5309"
"313","335","Calumet Ave & 35th St","41.831379","-87.618034","616","0","616"
"314","336","Cottage Grove Ave & 47th St","41.809855","-87.606755","278","0","278"
"315","337","Clark St & Chicago Ave","41.89675","-87.63089","3349","0","3349"
"316","338","Calumet Ave & 18th St","41.857611","-87.619407","2539","0","2539"
"317","339","Emerald Ave & 31st St","41.838198","-87.645143","1046","0","1046"
"318","340","Clark St & Wrightwood Ave","41.929546","-87.643118","4859","0","4859"
"319","341","Adler Planetarium","41.866095","-87.607267","8286","0","8286"
"320","342","Wolcott Ave & Polk St","41.871262","-87.673688","2243","0","2243"
"321","343","Racine Ave & Wrightwood Ave","41.928887","-87.658971","1421","0","1421"
"322","344","Ravenswood Ave & Lawrence Ave","41.96909","-87.674237","3392","0","3392"
"323","345","Lake Park Ave & 56th St","41.793242","-87.587782","962","0","962"
"324","346","Ada St & Washington Blvd","41.88283","-87.661206","2217","0","2217"
"325","347","Ashland Ave & Grace St","41.950687","-87.6687","1189","0","1189"
"326","348","California Ave & 21st St","41.853804066","-87.695742399","159","0","159"
"327","349","Halsted St & Wrightwood Ave","41.929143","-87.649077","2719","0","2719"
"328","350","Ashland Ave & Chicago Ave","41.895974323","-87.667725384","2014","0","2014"
"329","351","Cottage Grove Ave & 51st St","41.803038","-87.606615","202","0","202"
"330","352","Jeffery Blvd & 67th St","41.773517551","-87.577142826","149","0","149"
"331","353","Clark St & Touhy Ave","42.012560115","-87.674367115","148","0","148"
"332","354","Sheridan Rd & Greenleaf Ave","42.010586563","-87.662412095","633","0","633"
"333","355","South Shore Dr & 67th St","41.773643","-87.567514","156","0","156"
"334","356","Stony Island Ave & 71st St","41.766492937","-87.586460878","48","0","48"
"335","359","Larrabee St & Division St","41.90348607","-87.643353494","2788","0","2788"
"336","364","Larrabee St & Oak St","41.900219493","-87.642985468","2463","0","2463"
"337","365","Halsted St & North Branch St","41.899390285","-87.648544908","755","0","755"
"338","366","Loomis St & Archer Ave","41.84163254","-87.657434953","260","0","260"
"339","367","Racine Ave & 35th St","41.830688565","-87.656210661","216","0","216"
"340","368","Ashland Ave & Archer Ave","41.839208684","-87.665609859","141","0","141"
"341","369","Wood St & 35th St","41.830104654","-87.670298309","67","0","67"
"342","370","Calumet Ave & 21st St","41.854184249","-87.619153741","1182","0","1182"
"343","373","Kedzie Ave & Chicago Ave","41.895465303","-87.706127884","169","0","169"
"344","374","Western Ave & Walton St","41.898417689","-87.686596016","1403","0","1403"
"345","375","Sacramento Blvd & Franklin Blvd","41.890468792","-87.702607512","156","0","156"
"346","376","Artesian Ave & Hubbard St","41.88949182","-87.688219365","1020","0","1020"
"347","377","Kedzie Ave & Lake St","41.884603285","-87.706303744","258","0","258"
"348","378","California Ave & Lake St","41.884453957","-87.696298137","250","0","250"
"349","381","Western Ave & Monroe St","41.879787709","-87.686112808","486","0","486"
"350","382","Western Ave & Congress Pkwy","41.874748851","-87.686445276","590","0","590"
"351","383","Ashland Ave & Harrison St","41.87295","-87.66913","1342","0","1342"
"352","384","Halsted St & 51st St","41.80183164","-87.645213904","18","0","18"
"353","385","Princeton Ave & Garfield Blvd","41.794982","-87.633124","110","0","110"
"354","386","Halsted St & 56th St","41.792929646","-87.644990057","64","0","64"
"355","388","Halsted St & 63rd St","41.779381142","-87.644620815","41","0","41"
"356","390","Wentworth Ave & 63rd St","41.780079633","-87.629746305","40","0","40"
"357","391","Halsted St & 69th St","41.76906172","-87.644613578","27","0","27"
"358","392","Perry Ave & 69th St","41.76929309","-87.628195929","2","0","2"
"359","393","Calumet Ave & 71st St","41.765508006","-87.616917925","8","0","8"
"360","394","Clark St & 9th St (AMLI)","41.870816","-87.631246","1272","0","1272"
"361","395","Jeffery Blvd & 76th St","41.757120068","-87.575839359","39","0","39"
"362","396","Yates Blvd & 75th St","41.758768","-87.56644","27","0","27"
"363","397","Saginaw Ave & Exchange Ave",NA,NA,"24","0","24"
"364","398","Rainbow Beach","41.757871448","-87.54938625","7","0","7"
"365","399","South Shore Dr & 74th St","41.76218896","-87.55927465","57","0","57"
"366","400","Cottage Grove Ave & 71st St","41.765719037","-87.604959713","11","0","11"
"367","401","Shields Ave & 28th Pl","41.842733","-87.635491","546","0","546"
"368","402","Shields Ave & 31st St","41.838464","-87.635406","647","0","647"
"369","403","Wentworth Ave & 33rd St","41.834529886","-87.631822981","457","0","457"
"370","405","Wentworth Ave & 35th St","41.830777","-87.632504","542","0","542"
"371","406","Lake Park Ave & 35th St","41.831274235","-87.608799195","952","0","952"
"372","407","State St & Pershing Rd","41.823015238","-87.626568018","30","0","30"
"373","408","Union Ave & Root St","41.819102","-87.643278","92","0","92"
"374","409","Shields Ave & 43rd St","41.816207679","-87.63481935","8","0","8"
"375","410","Prairie Ave & 43rd St","41.816658893","-87.619412462","107","0","107"
"376","411","Halsted St & 47th Pl","41.808133915","-87.645616554","114","0","114"
"377","412","Princeton Ave & 47th St","41.809317709","-87.633449288","66","0","66"
"378","413","Woodlawn Ave & Lake Park Ave","41.81409271","-87.597005148","295","0","295"
"379","414","Canal St & Taylor St","41.870257","-87.639474","1937","0","1937"
"380","415","Calumet Ave & 51st St","41.802294651","-87.61805358","134","0","134"
"381","416","Dorchester Ave & 49th St","41.805772","-87.592464","152","0","152"
"382","417","Cornell Ave & Hyde Park Blvd","41.802406","-87.586924","1478","0","1478"
"383","418","Ellis Ave & 53rd St","41.799336263","-87.600958115","764","0","764"
"384","419","Lake Park Ave & 53rd St","41.799494294","-87.586449896","961","0","961"
"385","420","Ellis Ave & 55th St","41.794300621","-87.601449773","1243","0","1243"
"386","421","MLK Jr Dr & 56th St (*)","41.793429457","-87.615853262","95","0","95"
"387","422","DuSable Museum","41.791568011","-87.607852177","286","0","286"
"388","423","University Ave & 57th St","41.791478","-87.599861","2116","0","2116"
"389","424","Museum of Science and Industry","41.79172821","-87.583945009","1192","0","1192"
"390","425","Harper Ave & 59th St","41.787942813","-87.58831517","368","0","368"
"391","426","Ellis Ave & 60th St","41.785097146","-87.601072761","551","0","551"
"392","427","Cottage Grove Ave & 63rd St","41.780600945","-87.605836093","201","0","201"
"393","428","Dorchester Ave & 63rd St","41.780405646","-87.591415989","132","0","132"
"394","429","Cottage Grove Ave & 67th St","41.773720952","-87.60563486","62","0","62"
"395","430","MLK Jr Dr & 63rd St","41.780080637","-87.615942857","28","0","28"
"396","431","Eberhart Ave & 61st St","41.784141693","-87.61330783","52","0","52"
"397","432","Clark St & Lunt Ave","42.009011181","-87.674111724","779","0","779"
"398","433","Kedzie Ave & Harrison St","41.873599675","-87.704870749","79","0","79"
"399","434","Ogden Ave & Roosevelt Rd","41.866501483","-87.68469707","827","0","827"
"400","435","Kedzie Ave & Roosevelt Rd","41.866492782","-87.706496176","60","0","60"
"401","436","Fairfield Ave & Roosevelt Rd","41.866624","-87.694521","170","0","170"
"402","437","Washtenaw Ave & Ogden Ave (*)","41.861930493","-87.693450451","157","0","157"
"403","438","Central Park Ave & Ogden Ave","41.854063504","-87.715117335","45","0","45"
"404","439","Kedzie Ave & 21st St","41.853533632","-87.705073032","59","0","59"
"405","440","Lawndale Ave & 23rd St","41.8481","-87.715068","8","0","8"
"406","441","Kedzie Ave & 24th St","41.848190945","-87.705413746","27","0","27"
"407","442","California Ave & 23rd Pl","41.849109692","-87.695139807","207","0","207"
"408","443","Millard Ave & 26th St","41.844531125","-87.715921998","60","0","60"
"409","444","Albany Ave & 26th St","41.844475014","-87.702013013","31","0","31"
"410","445","California Ave & 26th St","41.843679915","-87.694968581","64","0","64"
"411","446","Western Ave & 28th St","41.841517708","-87.685131441","45","0","45"
"412","447","Glenwood Ave & Morse Ave","42.007971923","-87.665502394","1058","0","1058"
"413","448","Warren Park East","42.004549622","-87.680666145","165","0","165"
"414","449","Clark St & Columbia Ave","42.004450629","-87.672402405","372","0","372"
"415","450","Warren Park West","42.001785","-87.688829","146","0","146"
"416","451","Sheridan Rd & Loyola Ave","42.00104378","-87.661198243","1078","0","1078"
"417","452","Western Ave & Granville Ave","41.994161369","-87.689438282","218","0","218"
"418","453","Clark St & Schreiber Ave","41.999251822","-87.671377339","483","0","483"
"419","454","Broadway & Granville Ave","41.994779688","-87.660284535","1385","0","1385"
"420","455","Maplewood Ave & Peterson Ave","41.990236029","-87.69336964","113","0","113"
"421","456","2112 W Peterson Ave","41.991178","-87.683593","149","0","149"
"422","457","Clark St & Elmdale Ave","41.990860448","-87.66972363","622","0","622"
"423","458","Broadway & Thorndale Ave","41.989742511","-87.660140621","1062","0","1062"
"424","459","Lakefront Trail & Bryn Mawr Ave",NA,NA,"4154","0","4154"
"425","460","Clark St & Bryn Mawr Ave","41.983593","-87.669154","1357","0","1357"
"426","461","Broadway & Ridge Ave","41.984044611","-87.660273829","1118","0","1118"
"427","462","Ravenswood Ave & Balmoral Ave","41.979762","-87.67753","671","0","671"
"428","463","Clark St & Berwyn Ave","41.978030622","-87.668564916","1921","0","1921"
"429","464","Damen Ave & Foster Ave","41.975614805","-87.679459039","941","0","941"
"430","465","Marine Dr & Ainslie St","41.9716","-87.650154","1388","0","1388"
"431","466","Ridge Blvd & Touhy Ave","42.012132277","-87.682912644","134","0","134"
"432","467","Western Ave & Lunt Ave","42.008594397","-87.690492239","210","0","210"
"433","468","Budlong Woods Library","41.983664709","-87.696422561","186","0","186"
"434","469","St. Louis Ave & Balmoral Ave","41.980394235","-87.716114961","184","0","184"
"435","470","Kedzie Ave & Foster Ave","41.975672","-87.709261","175","0","175"
"436","471","Francisco Ave & Foster Ave","41.975632725","-87.701419439","521","0","521"
"437","472","Lincoln Ave & Winona St","41.974911297","-87.692502559","359","0","359"
"438","474","Christiana Ave & Lawrence Ave","41.968354494","-87.711830667","357","0","357"
"439","475","Washtenaw Ave & Lawrence Ave","41.968987","-87.696027","339","0","339"
"440","476","Kedzie Ave & Leland Ave","41.966686362","-87.708051981","338","0","338"
"441","477","Manor Ave & Leland Ave","41.965875","-87.700825","306","0","306"
"442","478","Rockwell St & Eastwood Ave","41.96590014","-87.693638494","658","0","658"
"443","479","Drake Ave & Montrose Ave","41.961154076","-87.716569073","406","0","406"
"444","480","Albany Ave & Montrose Ave","41.961041","-87.705866","348","0","348"
"445","481","California Ave & Montrose Ave","41.961068","-87.695439","348","0","348"
"446","482","Campbell Ave & Montrose Ave","41.961525933","-87.691165041","566","0","566"
"447","483","Avondale Ave & Irving Park Rd","41.953393","-87.732002","395","0","395"
"448","484","Monticello Ave & Irving Park Rd","41.954004839","-87.71912818","359","0","359"
"449","485","Sawyer Ave & Irving Park Rd","41.953586179","-87.7093108","293","0","293"
"450","486","Oakley Ave & Irving Park Rd","41.954340852","-87.686079624","564","0","564"
"451","487","California Ave & Byron St","41.952162193","-87.698051113","340","0","340"
"452","488","Pulaski Rd & Eddy St","41.946264","-87.731023","159","0","159"
"453","489","Drake Ave & Addison St","41.947326","-87.717582","339","0","339"
"454","490","Troy St & Elston Ave","41.945243568","-87.706649901","547","0","547"
"455","491","Talman Ave & Addison St","41.946635831","-87.694614758","561","0","561"
"456","492","Leavitt St & Addison St","41.946655","-87.683359","665","0","665"
"457","493","Oakley Ave & Roscoe St","41.943034","-87.687288","913","0","913"
"458","494","Kedzie Ave & Bryn Mawr Ave","41.982229759","-87.708886564","137","0","137"
"459","495","Keystone Ave & Montrose Ave","41.961108016","-87.728970101","232","0","232"
"460","496","Avers Ave & Belmont Ave","41.939408","-87.723574","269","0","269"
"461","497","Kimball Ave & Belmont Ave","41.939398","-87.711561","449","0","449"
"462","498","California Ave & Fletcher St","41.938428791","-87.698007756","511","0","511"
"463","499","Kosciuszko Park","41.930585371","-87.723777364","421","0","421"
"464","500","Central Park Ave & Elbridge Ave","41.935337283","-87.716889294","264","0","264"
"465","501","Richmond St & Diversey Ave","41.931901969","-87.70119513","716","0","716"
"466","502","California Ave & Altgeld St","41.92669","-87.697668","787","0","787"
"467","503","Drake Ave & Fullerton Ave","41.924815597","-87.714495063","613","0","613"
"468","504","Campbell Ave & Fullerton Ave","41.924632472","-87.689307006","920","0","920"
"469","505","Winchester Ave & Elston Ave","41.92409085","-87.676460075","618","0","618"
"470","506","Spaulding Ave & Armitage Ave","41.917108035","-87.710220963","1144","0","1144"
"471","507","Humboldt Blvd & Armitage Ave","41.917513394","-87.701808955","1372","0","1372"
"472","508","Central Park Ave & North Ave","41.909656876","-87.716631952","342","0","342"
"473","509","Troy St & North Ave","41.909769302","-87.705280487","474","0","474"
"474","510","Spaulding Ave & Division St","41.902706594","-87.709219571","231","0","231"
"475","511","Albany Ave & Bloomingdale Ave","41.914026713","-87.705126462","1324","0","1324"
"476","514","Ridge Blvd & Howard St","42.019276","-87.68452","315","0","315"
"477","515","Paulina St & Howard St","42.019159","-87.673573","543","0","543"
"478","517","Clark St & Jarvis Ave","42.015963","-87.675005","262","0","262"
"479","518","Conservatory Dr & Lake St","41.885502","-87.716866","231","0","231"
"480","519","Wolcott Ave & Fargo Ave","42.016977","-87.677725","78","0","78"
"481","520","Greenview Ave & Jarvis Ave","42.015962","-87.66857","688","0","688"
"482","522","Bosworth Ave & Howard St","42.019537","-87.669563","230","0","230"
"483","523","Eastlake Ter & Rogers Ave","42.020887281","-87.665057927","527","0","527"
"484","524","Austin Blvd & Chicago Ave","41.894887","-87.774704","31","0","31"
"485","525","Glenwood Ave & Touhy Ave","42.012701","-87.666058","299","0","299"
"486","526","Oakley Ave & Touhy Ave","42.012342","-87.688243","137","0","137"
"487","527","Western Ave & Howard St","42.018901","-87.690048","107","0","107"
"488","528","Pulaski Rd & Lake St","41.885409","-87.726491","31","0","31"
"489","529","Cicero Ave & Lake St","41.886841","-87.745261","33","0","33"
"490","530","Laramie Ave & Kinzie St","41.887832","-87.755527","33","0","33"
"491","531","Central Ave & Lake St","41.887664","-87.765469","30","0","30"
"492","532","Austin Blvd & Lake St","41.888059607","-87.774265409","84","0","84"
"493","533","Central Park Blvd & 5th Ave","41.875679","-87.71547","56","0","56"
"494","534","Pulaski Rd & Madison St","41.88085","-87.727907","37","0","37"
"495","535","Pulaski Rd & Congress Pkwy","41.874325","-87.725704","48","0","48"
"496","536","Kostner Ave & Lake St","41.885928","-87.73541","23","0","23"
"497","537","Kenton Ave & Madison St","41.880708","-87.741018","2","0","2"
"498","538","Cicero Ave & Flournoy St","41.872131","-87.746619","0","0","0"
"499","539","Cicero Ave & Quincy St","41.877613","-87.745405","14","0","14"
"500","540","Laramie Ave & Madison St","41.880207","-87.755337","25","0","25"
"501","541","Central Ave & Harrison St","41.872993","-87.764499","36","0","36"
"502","542","Central Ave & Madison St","41.880121","-87.763238","24","0","24"
"503","543","Laramie Ave & Gladys Ave","41.875806","-87.755285","53","0","53"
"504","544","Austin Blvd & Madison St","41.880281","-87.774453","0","0","0"
"505","545","Kostner Ave & Adams St","41.877917","-87.735737","27","0","27"
"506","546","Damen Ave & Pershing Rd","41.823192","-87.676597","37","0","37"
"507","547","Ashland Ave & Pershing Rd","41.823465","-87.665577","61","0","61"
"508","548","Morgan St & Pershing Rd","41.823613","-87.650931","8","0","8"
"509","549","Marshfield Ave & 44th St","41.813996","-87.666589","9","0","9"
"510","550","Central Ave & Chicago Ave","41.894958","-87.764902","11","0","11"
"511","551","Hoyne Ave & 47th St","41.808227","-87.67718","47","0","47"
"512","552","Ashland Ave & McDowell Ave","41.80887","-87.66454","82","0","82"
"513","553","Elizabeth St & 47th St","41.80839","-87.656526","35","0","35"
"514","554","Damen Ave & 51st St","41.800908","-87.674684","21","0","21"
"515","555","Ashland Ave & 50th St","41.803023","-87.664699","11","0","11"
"516","556","Throop St & 52nd St","41.799659","-87.657195","0","0","0"
"517","557","Seeley Ave & Garfield Blvd","41.794087","-87.675478","0","0","0"
"518","558","Ashland Ave & Garfield Blvd","41.792822","-87.664429","4","0","4"
"519","559","Racine Ave & Garfield Blvd","41.794228","-87.655073","13","0","13"
"520","560","Marshfield Ave & 59th St","41.786833","-87.666215","3","0","3"
"521","561","Damen Ave & 59th St","41.785861065","-87.67414391","16","0","16"
"522","562","Racine Ave & 61st St","41.783189","-87.654372","3","0","3"
"523","563","Ashland Ave & 63rd St","41.779374","-87.664843","14","0","14"
"524","564","Racine Ave & 65th St","41.775393","-87.654308","6","0","6"
"525","565","Ashland Ave & 66th St","41.774074","-87.663815","0","0","0"
"526","566","Ashland Ave & 69th St",NA,NA,"9","0","9"
"527","567","May St & 69th St","41.768938","-87.652934","2","0","2"
"528","568","Normal Ave & 72nd St","41.75797","-87.63121","3","0","3"
"529","569","Woodlawn Ave & 75th St","41.75916","-87.595751","5","0","5"
"530","570","Evans Ave & 75th St","41.75849","-87.60641","9","0","9"
"531","571","Vernon Ave & 75th St","41.758361","-87.614138","53","0","53"
"532","572","State St & 76th St","41.756971","-87.624621","32","0","32"
"533","573","State St & 79th St","41.750794","-87.624424","68","0","68"
"534","574","Eberhart (Vernon) Ave & 79th St","41.75094","-87.61379","31","0","31"
"535","575","Cottage Grove Ave & 78th St","41.753174","-87.605026","34","0","34"
"536","576","Greenwood Ave & 79th St","41.751294","-87.597552","19","0","19"
"537","577","Stony Island Ave & South Chicago Ave","41.751173","-87.585337","36","0","36"
"538","578","Bennett Ave & 79th St","41.751785","-87.578496","35","0","35"
"539","579","Phillips Ave & 79th St","41.75182","-87.565211","133","0","133"
"540","580","Exchange Ave & 79th St","41.751731","-87.552812","166","0","166"
"541","583","Stony Island Ave & 82nd St","41.746559","-87.586005","25","0","25"
"542","584","Ellis Ave & 83rd St","41.744123","-87.599034","7","0","7"
"543","585","Cottage Grove Ave & 83rd St","41.743441","-87.604836","46","0","46"
"544","586","MLK Jr Dr & 83rd St","41.743116","-87.6148","15","0","15"
"545","587","Wabash Ave & 83rd St","41.743316","-87.622849","3","0","3"
"546","588","South Chicago Ave & 83rd St","41.743921","-87.575225","5","0","5"
"547","589","Milwaukee Ave & Cuyler Ave","41.954468","-87.749594","127","0","127"
"548","590","Kilbourn Ave & Irving Park Rd","41.953733","-87.740569","168","0","168"
"549","591","Kilbourn Ave & Milwaukee Ave","41.947070894","-87.740008235","138","0","138"
"550","592","Knox Ave & Montrose Ave","41.960631","-87.745359","112","0","112"
"551","593","Halsted St & 59th St","41.787539","-87.644874","4","0","4"
"552","594","Western Blvd & 48th Pl","41.805661","-87.683392","33","0","33"
"553","595","Wabash Ave & 87th St","41.736646","-87.622634","12","0","12"
"554","596","Benson Ave & Church St","42.048214","-87.683485","1353","0","1353"
"555","597","Chicago Ave & Washington St","42.032562","-87.679101","900","0","900"
"556","598","Elmwood Ave & Austin St","42.025784","-87.684107","199","0","199"
"557","599","Valli Produce - Evanston Plaza","42.039742","-87.699413","148","0","148"
"558","600","Dodge Ave & Church St","42.048308","-87.698224","167","0","167"
"559","601","Central St Metra","42.063598","-87.69873","340","0","340"
"560","602","Central St & Girard Ave","42.064313","-87.686152","315","0","315"
"561","603","Chicago Ave & Sheridan Rd","42.050491","-87.677821","572","0","572"
"562","604","Sheridan Rd & Noyes St (NU)","42.058239","-87.677432","534","0","534"
"563","605","University Library (NU)","42.052939","-87.673447","799","0","799"
"564","619","Keystone Ave & Fullerton Ave","41.92459","-87.72785","173","0","173"
"565","620","Orleans St & Chestnut St (NEXT Apts)","41.898203","-87.637536","1489","0","1489"
"566","622","California Ave & Cortez St","41.900363","-87.696704","685","0","685"
"567","623","Michigan Ave & 8th St","41.872773","-87.623981","5067","0","5067"
"568","624","Dearborn St & Van Buren St (*)","41.876268","-87.629155","1010","0","1010"
"569","625","Chicago Ave & Dempster St","42.034631852","-87.699187696","194","0","194"
