"","station_id","station_name","lat","long","total","electric","classic"
"1","2","Buckingham Fountain","41.876535194","-87.620472908","3063","0","3063"
"2","3","Shedd Aquarium","41.867225957","-87.61535539","5486","0","5486"
"3","4","Burnham Harbor","41.856268","-87.613348","3469","0","3469"
"4","5","State St & Harrison St","41.874053","-87.627716","1897","0","1897"
"5","6","Dusable Harbor","41.886976","-87.612813","3672","0","3672"
"6","7","Field Blvd & South Water St","41.886349063","-87.617516547","2655","0","2655"
"7","9","Leavitt St & Archer Ave","41.82879202","-87.680604459","127","0","127"
"8","11","Jeffery Blvd & 71st St","41.766638237","-87.576450114","61","0","61"
"9","12","South Shore Dr & 71st St","41.766409457","-87.565687572","135","0","135"
"10","13","Wilton Ave & Diversey Pkwy","41.932418","-87.652705","2783","0","2783"
"11","14","Morgan St & 18th St","41.858086","-87.651073","804","0","804"
"12","15","Racine Ave & 18th St","41.858166","-87.656495","787","0","787"
"13","16","Paulina Ave & North Ave","41.909854652","-87.66993016","1460","0","1460"
"14","17","Honore St & Division St","41.903119","-87.673935","1674","0","1674"
"15","18","Wacker Dr & Washington St","41.883143364","-87.637242079","3751","0","3751"
"16","19","Loomis St & Taylor St (*)","41.868968","-87.659141","1929","0","1929"
"17","20","Sheffield Ave & Kingsbury St","41.910522","-87.653106","2205","0","2205"
"18","21","Aberdeen St & Jackson Blvd","41.87772613","-87.65478743","2327","0","2327"
"19","22","May St & Taylor St","41.8694821","-87.6554864","2258","0","2258"
"20","23","Orleans St & Elm St (*)","41.902924","-87.637715","961","0","961"
"21","24","Fairbanks Ct & Grand Ave","41.891847372","-87.620580196","5128","0","5128"
"22","25","Michigan Ave & Pearson St","41.89766","-87.62351","2386","0","2386"
"23","26","McClurg Ct & Illinois St","41.890847041","-87.618616819","4213","0","4213"
"24","27","Larrabee St & North Ave","41.91021","-87.6435","981","0","981"
"25","28","Larrabee St & Menomonee St","41.91468","-87.64332","1044","0","1044"
"26","29","Noble St & Milwaukee Ave","41.90068","-87.6626","1476","0","1476"
"27","30","Ashland Ave & Augusta Blvd","41.899643","-87.6677","1206","0","1206"
"28","31","Franklin St & Chicago Ave","41.896746973","-87.635667622","2884","0","2884"
"29","32","Racine Ave & Congress Pkwy","41.87464","-87.65703","1510","0","1510"
"30","33","State St & Van Buren St","41.877181","-87.627844","2479","0","2479"
"31","34","Cannon Dr & Fullerton Ave","41.926755988","-87.634428785","1717","0","1717"
"32","35","Streeter Dr & Grand Ave","41.892278","-87.612043","19787","0","19787"
"33","36","Franklin St & Jackson Blvd","41.877707956","-87.635321141","4180","0","4180"
"34","37","Dearborn St & Adams St","41.879356359","-87.629791036","2645","0","2645"
"35","38","Clark St & Lake St","41.886020828","-87.630876058","3538","0","3538"
"36","39","Wabash Ave & Adams St","41.879472352","-87.625688606","2526","0","2526"
"37","40","LaSalle St & Adams St","41.879344373","-87.631985221","1495","0","1495"
"38","41","Federal St & Polk St","41.872077633","-87.629543773","2540","0","2540"
"39","42","Wabash Ave & Cermak Rd","41.852619","-87.626488","581","0","581"
"40","43","Michigan Ave & Washington St","41.883984065","-87.624683976","8237","0","8237"
"41","44","State St & Randolph St","41.884621073","-87.627834231","3979","0","3979"
"42","45","Michigan Ave & Congress Pkwy","41.876243","-87.624426","1534","0","1534"
"43","46","Wells St & Walton St","41.89993001","-87.63443007","1257","0","1257"
"44","47","State St & Kinzie St","41.889187","-87.627754","4258","0","4258"
"45","48","Larrabee St & Kingsbury St","41.897764","-87.642884","4111","0","4111"
"46","49","Dearborn St & Monroe St","41.881319815","-87.629520919","4090","0","4090"
"47","50","Clark St & Congress Pkwy","41.875932666","-87.630584536","2633","0","2633"
"48","51","Clark St & Randolph St","41.884576228","-87.63188991","3636","0","3636"
"49","52","Michigan Ave & Lake St","41.886024","-87.624117","5171","0","5171"
"50","53","Wells St & Huron St","41.894722","-87.634362","3612","0","3612"
"51","54","Ogden Ave & Chicago Ave","41.896362458","-87.654061273","1734","0","1734"
"52","55","Halsted St & Roosevelt Rd","41.867324","-87.648625","909","0","909"
"53","56","Desplaines St & Kinzie St","41.888716036","-87.644447853","3621","0","3621"
"54","57","Clinton St & Roosevelt Rd","41.867117783","-87.641087959","1272","0","1272"
"55","58","Marshfield Ave & Cortland St","41.916433429","-87.666746378","3310","0","3310"
"56","59","Wabash Ave & Roosevelt Rd","41.867227","-87.625961","4739","0","4739"
"57","60","Dayton St & North Ave","41.910578035","-87.649421929","2273","0","2273"
"58","61","Wood St & Milwaukee Ave","41.907655","-87.672552","2468","0","2468"
"59","62","McCormick Place","41.851375173","-87.618834649","1383","0","1383"
"60","66","Clinton St & Lake St","41.885637","-87.641823","4847","0","4847"
"61","67","Sheffield Ave & Fullerton Ave","41.925601882","-87.653708042","3538","0","3538"
"62","68","Clinton St & Tilden St","41.875885","-87.640795","1545","0","1545"
"63","69","Damen Ave & Pierce Ave","41.909396007","-87.677691929","4184","0","4184"
"64","71","Morgan St & Lake St","41.885779252","-87.65102461","3856","0","3856"
"65","72","Wabash Ave & 16th St","41.860384","-87.625813","2081","0","2081"
"66","73","Jefferson St & Monroe St","41.880329634","-87.642745972","1713","0","1713"
"67","74","Kingsbury St & Erie St","41.893808056","-87.641697228","3924","0","3924"
"68","75","Canal St & Jackson Blvd","41.877245","-87.639366","2364","0","2364"
"69","76","Lake Shore Dr & Monroe St","41.880958","-87.616743","9798","0","9798"
"70","77","Clinton St & Madison St","41.882242","-87.641066","9623","0","9623"
"71","80","Aberdeen St & Monroe St","41.880419","-87.655519","2246","0","2246"
"72","81","Daley Center Plaza","41.884241","-87.629634","7804","0","7804"
"73","84","Milwaukee Ave & Grand Ave","41.891578","-87.648384","3010","0","3010"
"74","85","Michigan Ave & Oak St","41.90096039","-87.62377664","7859","0","7859"
"75","86","Eckhart Park","41.89637337","-87.66098386","1624","0","1624"
"76","87","Racine Ave & Fullerton Ave","41.92556258","-87.65840426","1683","0","1683"
"77","88","Racine Ave & Randolph St","41.884069","-87.656853","1625","0","1625"
"78","89","Financial Pl & Congress Pkwy (Temp)","41.875023628","-87.633094043","1546","0","1546"
"79","90","Millennium Park","41.8810317","-87.62408432","9042","0","9042"
"80","91","Clinton St & Washington Blvd","41.88338","-87.64117","9948","0","9948"
"81","92","Carpenter St & Huron St","41.894556","-87.653449","1270","0","1270"
"82","93","Sheffield Ave & Willow St","41.913688","-87.652855","1916","0","1916"
"83","94","Clark St & Armitage Ave","41.918306","-87.636282","4855","0","4855"
"84","95","Stony Island Ave & 64th St","41.778881","-87.586647","68","0","68"
"85","96","Desplaines St & Randolph St","41.88461619","-87.644570585","2548","0","2548"
"86","97","Field Museum","41.865312","-87.617867","2267","0","2267"
"87","98","LaSalle St & Washington St","41.882664","-87.63253","2371","0","2371"
"88","99","Lake Shore Dr & Ohio St","41.89259212","-87.617289126","3218","0","3218"
"89","100","Orleans St & Merchandise Mart Plaza","41.888243","-87.63639","5953","0","5953"
"90","101","63rd St Beach","41.780910964","-87.576323748","270","0","270"
"91","102","Stony Island Ave & 67th St","41.773458499","-87.585339739","109","0","109"
"92","103","Clinton St & Polk St (*)","41.871466518","-87.640949133","502","0","502"
"93","106","State St & Pearson St","41.897448","-87.628722","2400","0","2400"
"94","107","Desplaines St & Jackson Blvd","41.878118901","-87.643947601","3026","0","3026"
"95","108","Halsted St & Polk St","41.87184","-87.64664","1677","0","1677"
"96","109","900 W Harrison St","41.874754","-87.649807","1138","0","1138"
"97","110","Dearborn St & Erie St","41.893992","-87.629318","5228","0","5228"
"98","111","Sedgwick St & Huron St","41.894666","-87.638437","2277","0","2277"
"99","112","Green St & Randolph St","41.883181306","-87.648724616","3520","0","3520"
"100","113","Bissell St & Armitage Ave","41.918018142","-87.652181983","2875","0","2875"
"101","114","Sheffield Ave & Waveland Ave","41.949399","-87.654529","3703","0","3703"
"102","115","Sheffield Ave & Wellington Ave","41.936253483","-87.652662098","2738","0","2738"
"103","116","Western Ave & Winnebago Ave","41.91552","-87.687022","1593","0","1593"
"104","117","Wilton Ave & Belmont Ave","41.94018","-87.65304","4140","0","4140"
"105","118","Sedgwick St & North Ave","41.911386","-87.638677","2619","0","2619"
"106","119","Ashland Ave & Lake St (Temp)","41.88592","-87.66717","916","0","916"
"107","120","Wentworth Ave & Cermak Rd (Temp)","41.853084557","-87.631931305","1410","0","1410"
"108","121","Blackstone Ave & Hyde Park Blvd","41.802562","-87.590368","737","0","737"
"109","122","Ogden Ave & Congress Pkwy","41.87501","-87.67328","318","0","318"
"110","123","California Ave & Milwaukee Ave","41.922695","-87.697153","2039","0","2039"
"111","124","Damen Ave & Cullerton St","41.854966519","-87.675699592","353","0","353"
"112","125","Rush St & Hubbard St","41.890173","-87.626185","2704","0","2704"
"113","126","Clark St & North Ave","41.911974","-87.631942","2269","0","2269"
"114","127","Lincoln Ave & Fullerton Ave","41.924161029","-87.646380365","2163","0","2163"
"115","128","Damen Ave & Chicago Ave","41.895769","-87.67722","2388","0","2388"
"116","129","Blue Island Ave & 18th St","41.857556","-87.661535","1010","0","1010"
"117","130","Damen Ave & Division St","41.903266","-87.678435","1383","0","1383"
"118","131","Lincoln Ave & Belmont Ave","41.939365","-87.668385","1620","0","1620"
"119","132","Wentworth Ave & 24th St","41.850083693","-87.632140517","302","0","302"
"120","133","Kingsbury St & Kinzie St","41.889176833","-87.638505772","7496","0","7496"
"121","134","Peoria St & Jackson Blvd","41.877641596","-87.649617791","2820","0","2820"
"122","135","Halsted St & 21st St","41.853779811","-87.646602988","327","0","327"
"123","136","Racine Ave & 13th St","41.865054","-87.656959","248","0","248"
"124","137","Morgan Ave & 14th Pl","41.862378","-87.651062","1065","0","1065"
"125","138","Clybourn Ave & Division St","41.904613","-87.640552","1356","0","1356"
"126","140","Dearborn Pkwy & Delaware Pl","41.898969","-87.629912","3688","0","3688"
"127","141","Clark St & Lincoln Ave","41.915689","-87.6346","4255","0","4255"
"128","142","McClurg Ct & Erie St","41.894503","-87.617854","3616","0","3616"
"129","143","Sedgwick St & Webster Ave","41.922167","-87.638888","2613","0","2613"
"130","144","Larrabee St & Webster Ave","41.921822","-87.64414","2758","0","2758"
"131","145","Mies van der Rohe Way & Chestnut St","41.898586651","-87.621915226","3208","0","3208"
"132","146","Loomis St & Jackson Blvd","41.877945","-87.662007","1043","0","1043"
"133","147","Indiana Ave & 26th St","41.845687","-87.622481","586","0","586"
"134","148","State St & 33rd St","41.834734","-87.625813","2070","0","2070"
"135","149","Calumet Ave & 33rd St","41.8349","-87.61793","774","0","774"
"136","150","Fort Dearborn Dr & 31st St","41.838556","-87.608218","2479","0","2479"
"137","152","Lincoln Ave & Diversey Pkwy","41.932225","-87.658617","1568","0","1568"
"138","153","Southport Ave & Wellington Ave","41.935733","-87.663576","2322","0","2322"
"139","154","Southport Ave & Belmont Ave","41.93947775","-87.663747668","1071","0","1071"
"140","156","Clark St & Wellington Ave","41.936496822","-87.647538658","2618","0","2618"
"141","157","Lake Shore Dr & Wellington Ave","41.936688449","-87.636829019","2808","0","2808"
"142","158","Milwaukee Ave & Wabansia Ave","41.912616","-87.681391","2030","0","2030"
"143","159","Claremont Ave & Hirsch St","41.907781","-87.685854","617","0","617"
"144","160","Campbell Ave & North Ave","41.910535","-87.689556","635","0","635"
"145","161","Rush St & Superior St","41.895764746","-87.625908033","2564","0","2564"
"146","162","Damen Ave & Wellington Ave","41.93588","-87.67842","731","0","731"
"147","163","Damen Ave & Clybourn Ave","41.931931","-87.677856","622","0","622"
"148","164","Franklin St & Lake St","41.885837","-87.6355","3227","0","3227"
"149","165","Clark St & Grace St","41.95078","-87.659172","1683","0","1683"
"150","166","Ashland Ave & Wrightwood Ave","41.92883","-87.668507","792","0","792"
"151","167","Damen Ave & Coulter St","41.8492","-87.67564","80","0","80"
"152","168","Michigan Ave & 14th St","41.864059","-87.623727","2148","0","2148"
"153","169","Canal St & Harrison St","41.874255","-87.639573","685","0","685"
"154","170","Clinton St & 18th St","41.85795","-87.640826","500","0","500"
"155","171","May St & Cullerton St","41.855136","-87.654127","446","0","446"
"156","172","Rush St & Cedar St","41.902308701","-87.627690528","2678","0","2678"
"157","173","Mies van der Rohe Way & Chicago Ave","41.896944626","-87.621757686","3106","0","3106"
"158","174","Canal St & Madison St","41.882091","-87.639833","6360","0","6360"
"159","175","Wells St & Polk St","41.872596","-87.633502","1622","0","1622"
"160","176","Clark St & Elm St","41.902973","-87.63128","4656","0","4656"
"161","177","Theater on the Lake","41.926277","-87.630834","9434","0","9434"
"162","178","State St & 19th St","41.856594","-87.627542","637","0","637"
"163","179","MLK Jr Dr & Pershing Rd","41.8246","-87.61678","230","0","230"
"164","180","Ritchie Ct & Banks St","41.906866","-87.626217","1702","0","1702"
"165","181","LaSalle St & Illinois St","41.890762","-87.631697","5242","0","5242"
"166","182","Wells St & Elm St","41.903222","-87.634324","2263","0","2263"
"167","183","Damen Ave & Thomas St (Augusta Blvd)","41.901315","-87.677409","1329","0","1329"
"168","184","State St & 35th St","41.831036314","-87.626797557","851","0","851"
"169","185","Stave St & Armitage Ave","41.917741","-87.691392","480","0","480"
"170","186","Ogden Ave & Race Ave","41.891795","-87.658751","1413","0","1413"
"171","188","Greenview Ave & Fullerton Ave","41.92533","-87.6658","1363","0","1363"
"172","190","Southport Ave & Wrightwood Ave","41.928773","-87.663913","1308","0","1308"
"173","191","Canal St & Monroe St (*)","41.88169","-87.63953","2885","0","2885"
"174","192","Canal St & Adams St","41.879255","-87.639904","12420","0","12420"
"175","193","State St & 29th St","41.841707","-87.626938","125","0","125"
"176","194","Wabash Ave & Wacker Pl","41.886875","-87.62603","2843","0","2843"
"177","195","Columbus Dr & Randolph St","41.884728","-87.619521","6253","0","6253"
"178","196","Cityfront Plaza Dr & Pioneer Ct","41.890573","-87.622072","3042","0","3042"
"179","197","Michigan Ave & Madison St","41.882134","-87.625125","2249","0","2249"
"180","198","Green St & Madison St","41.881892","-87.648789","3644","0","3644"
"181","199","Wabash Ave & Grand Ave","41.891466","-87.626761","4626","0","4626"
"182","200","MLK Jr Dr & 47th St","41.809851","-87.616279","173","0","173"
"183","201","Indiana Ave & 40th St","41.82168","-87.6216","61","0","61"
"184","202","Halsted St & 18th St","41.85750568","-87.645991445","556","0","556"
"185","203","Western Ave & 21st St","41.854109","-87.685838","288","0","288"
"186","204","Prairie Ave & Garfield Blvd","41.794853","-87.618691","435","0","435"
"187","205","Paulina St & 18th St","41.857901","-87.668745","731","0","731"
"188","206","Halsted St & Archer Ave","41.847203","-87.646795","335","0","335"
"189","207","Emerald Ave & 28th St","41.84358","-87.645368","479","0","479"
"190","208","Ashland Ave & 21st St","41.854914576","-87.663559914","205","0","205"
"191","209","Normal Ave & Archer Ave","41.849527","-87.640591","158","0","158"
"192","210","Ashland Ave & Division St","41.90345","-87.667747","3472","0","3472"
"193","211","St. Clair St & Erie St","41.894345137","-87.622798383","4375","0","4375"
"194","212","Wells St & Hubbard St","41.889906","-87.634266","2653","0","2653"
"195","213","Leavitt St & North Ave","41.910509367","-87.682389021","960","0","960"
"196","214","Damen Ave & Grand Ave","41.891264346","-87.676842213","1292","0","1292"
"197","215","Damen Ave & Madison St","41.88137","-87.67493","598","0","598"
"198","216","California Ave & Division St","41.903029","-87.697474","437","0","437"
"199","217","Racine Ave (May St) & Fulton St","41.886616486","-87.658039927","1358","0","1358"
"200","218","Wells St & 19th St","41.856802","-87.633879","282","0","282"
"201","219","Damen Ave & Cortland St","41.915983","-87.677335","2041","0","2041"
"202","220","Clark St & Drummond Pl","41.931248","-87.644336","3699","0","3699"
"203","222","Milwaukee Ave & Rockwell St","41.920195562","-87.692659199","728","0","728"
"204","223","Clifton Ave & Armitage Ave","41.918216","-87.656936","1531","0","1531"
"205","224","Halsted St & Willow St","41.913865","-87.648755","1292","0","1292"
"206","225","Halsted St & Dickens Ave","41.919936","-87.64883","1871","0","1871"
"207","226","Racine Ave & Belmont Ave","41.939743","-87.658865","1551","0","1551"
"208","227","Southport Ave & Waveland Ave","41.94815","-87.66394","2219","0","2219"
"209","228","Damen Ave & Melrose Ave","41.9406","-87.6785","574","0","574"
"210","229","Southport Ave & Roscoe St","41.943739","-87.66402","2457","0","2457"
"211","230","Lincoln Ave & Roscoe St","41.94379115","-87.671257854","2033","0","2033"
"212","231","Sheridan Rd & Montrose Ave","41.96167","-87.65464","1593","0","1593"
"213","232","Pine Grove Ave & Waveland Ave","41.949472741","-87.646452785","2317","0","2317"
"214","233","Sangamon St & Washington Blvd (*)","41.883165","-87.6511","1599","0","1599"
"215","234","Clark St & Montrose Ave","41.961588","-87.666036","900","0","900"
"216","236","Sedgwick St & Schiller St","41.907626","-87.638566","450","0","450"
"217","237","MLK Jr Dr & 29th St","41.842052","-87.617","2842","0","2842"
"218","238","Wolcott (Ravenswood) Ave & Montrose Ave (*)","41.961406","-87.676169","796","0","796"
"219","239","Western Ave & Leland Ave","41.966399802","-87.688704282","1345","0","1345"
"220","240","Sheridan Rd & Irving Park Rd","41.954245","-87.654406","2228","0","2228"
"221","241","Morgan St & Polk St","41.871737","-87.65103","2874","0","2874"
"222","242","Damen Ave & Leland Ave","41.967094","-87.679028","1088","0","1088"
"223","243","Lincoln Ave & Leavitt St","41.963004","-87.684781","945","0","945"
"224","244","Ravenswood Ave & Irving Park Rd","41.95469","-87.67393","1123","0","1123"
"225","245","Clarendon Ave & Junior Ter","41.961004","-87.649603","1122","0","1122"
"226","246","Ashland Ave & Belle Plaine Ave","41.956057","-87.668835","388","0","388"
"227","247","Shore Dr & 55th St","41.795212","-87.580715","1730","0","1730"
"228","248","Woodlawn Ave & 55th St","41.795264","-87.596471","763","0","763"
"229","249","Montrose Harbor","41.963982","-87.638181","3731","0","3731"
"230","250","Ashland Ave & Wellington Ave","41.936083","-87.669807","752","0","752"
"231","251","Clarendon Ave & Leland Ave","41.967968","-87.650001","868","0","868"
"232","252","Greenwood Ave & 47th St","41.809835","-87.599383","239","0","239"
"233","253","Winthrop Ave & Lawrence Ave","41.968812","-87.657659","1065","0","1065"
"234","254","Pine Grove Ave & Irving Park Rd","41.954383","-87.648043","1983","0","1983"
"235","255","Indiana Ave & Roosevelt Rd","41.867888","-87.623041","5077","0","5077"
"236","256","Broadway & Sheridan Rd","41.952833","-87.649993","1210","0","1210"
"237","257","Lincoln Ave & Waveland Ave","41.948797","-87.675278","696","0","696"
"238","258","Logan Blvd & Elston Ave","41.929465","-87.684158","935","0","935"
"239","259","California Ave & Francis Pl","41.918491154","-87.697422802","755","0","755"
"240","260","Kedzie Ave & Milwaukee Ave","41.929567","-87.707857","1998","0","1998"
"241","261","Hermitage Ave & Polk St","41.871514","-87.669886","1452","0","1452"
"242","262","Halsted St & 37th St","41.827059","-87.64572","91","0","91"
"243","263","Rhodes Ave & 32nd St","41.836208","-87.613533","546","0","546"
"244","264","Stetson Ave & South Water St","41.886835","-87.62232","2718","0","2718"
"245","265","Cottage Grove Ave & Oakwood Blvd","41.822985","-87.6071","231","0","231"
"246","267","Lake Park Ave & 47th St","41.809443","-87.591875","398","0","398"
"247","268","Lake Shore Dr & North Blvd","41.911722","-87.626804","7990","0","7990"
"248","270","Stony Island Ave & 75th St","41.75866967","-87.586882871","73","0","73"
"249","271","Cottage Grove Ave & 43rd St","41.816499","-87.606582","126","0","126"
"250","272","Indiana Ave & 31st St","41.838842","-87.621857","963","0","963"
"251","273","Michigan Ave & 18th St","41.857813","-87.62455","2111","0","2111"
"252","274","Racine Ave & 15th St","41.861267","-87.656625","518","0","518"
"253","275","Ashland Ave & 13th St","41.865234","-87.666507","490","0","490"
"254","276","California Ave & North Ave","41.91044","-87.6972","481","0","481"
"255","277","Ashland Ave & Grand Ave","41.891072","-87.666611","965","0","965"
"256","278","Wallace St & 35th St","41.83101433","-87.641183585","393","0","393"
"257","279","Halsted St & 35th St (*)","41.830661","-87.647172","423","0","423"
"258","280","Morgan St & 31st St","41.8378","-87.65114","486","0","486"
"259","281","Western Ave & 24th St","41.84847","-87.685109","125","0","125"
"260","282","Halsted St & Maxwell St","41.864883","-87.647071","1467","0","1467"
"261","283","LaSalle St & Jackson Blvd","41.878166","-87.631929","5519","0","5519"
"262","284","Michigan Ave & Jackson Blvd","41.87785","-87.62408","3586","0","3586"
"263","285","Wood St & Hubbard St","41.889899","-87.671473","830","0","830"
"264","286","Franklin St & Quincy St","41.879434091","-87.635504007","2542","0","2542"
"265","287","Franklin St & Monroe St","41.880317","-87.635185","6992","0","6992"
"266","288","Larrabee St & Armitage Ave","41.918084","-87.643749","1314","0","1314"
"267","289","Wells St & Concord Ln","41.912133","-87.634656","4443","0","4443"
"268","290","Kedzie Ave & Palmer Ct","41.921525","-87.707322","826","0","826"
"269","291","Wells St & Evergreen Ave","41.906724","-87.63483","2813","0","2813"
"270","292","Southport Ave & Clark St","41.957081","-87.664199","517","0","517"
"271","293","Broadway & Wilson Ave","41.965221","-87.658139","1234","0","1234"
"272","294","Broadway & Berwyn Ave","41.978353","-87.659753","1231","0","1231"
"273","295","Broadway & Argyle St","41.973815","-87.65966","1025","0","1025"
"274","296","Broadway & Belmont Ave","41.940106","-87.645451","2590","0","2590"
"275","297","Paulina St & Montrose Ave","41.961507","-87.671387","583","0","583"
"276","298","Lincoln Ave & Belle Plaine Ave","41.956003551","-87.680161446","938","0","938"
"277","299","Halsted St & Roscoe St","41.94367","-87.64895","2492","0","2492"
"278","300","Broadway & Barry Ave","41.937582316","-87.644097805","3134","0","3134"
"279","301","Clark St & Schiller St","41.907993","-87.631501","2586","0","2586"
"280","302","Sheffield Ave & Wrightwood Ave","41.928712","-87.653833","1679","0","1679"
"281","303","Broadway & Cornelia Ave","41.945529","-87.646439","2505","0","2505"
"282","304","Broadway & Waveland Ave","41.949074","-87.648636","1953","0","1953"
"283","305","Western Ave & Division St","41.902893","-87.687275","926","0","926"
"284","306","Sheridan Rd & Buena Ave","41.958494","-87.654966","1167","0","1167"
"285","307","Southport Ave & Clybourn Ave","41.920771","-87.663712","1532","0","1532"
"286","308","Seeley Ave & Roscoe St","41.943403","-87.679618","677","0","677"
"287","309","Leavitt St & Armitage Ave","41.917805","-87.682437","739","0","739"
"288","310","Damen Ave & Charleston St","41.920082","-87.677855","841","0","841"
"289","311","Leavitt St & Lawrence Ave","41.968885","-87.684001","586","0","586"
"290","312","Clarendon Ave & Gordon Ter","41.957866524","-87.649505138","1608","0","1608"
"291","313","Lakeview Ave & Fullerton Pkwy","41.925858","-87.638973","3409","0","3409"
"292","314","Ravenswood Ave & Berteau Ave","41.957921","-87.673567","794","0","794"
"293","315","Elston Ave & Wabansia Ave","41.912919","-87.664169","614","0","614"
"294","316","Damen Ave & Sunnyside Ave","41.96325","-87.679258","611","0","611"
"295","317","Wood St & Taylor St","41.869265218","-87.67373085","1242","0","1242"
"296","318","Southport Ave & Irving Park Rd","41.954177","-87.664358","1101","0","1101"
"297","319","Greenview Ave & Diversey Pkwy","41.932589634","-87.665936351","756","0","756"
"298","320","Loomis St & Lexington St","41.872187","-87.661501","2314","0","2314"
"299","321","Wabash Ave & 9th St","41.870769","-87.625734","2396","0","2396"
"300","322","Kimbark Ave & 53rd St","41.799568","-87.594747","1511","0","1511"
"301","323","Sheridan Rd & Lawrence Ave","41.969517","-87.654691","844","0","844"
"302","324","Stockton Dr & Wrightwood Ave","41.93132","-87.638742","2292","0","2292"
"303","325","Clark St & Winnemac Ave (Temp)","41.97334764","-87.667855471","1351","0","1351"
"304","326","Clark St & Leland Ave","41.967096","-87.667429","830","0","830"
"305","327","Sheffield Ave & Webster Ave","41.92154","-87.653818","2369","0","2369"
"306","328","Ellis Ave & 58th St","41.788746","-87.601334","1180","0","1180"
"307","329","Lake Shore Dr & Diversey Pkwy","41.932588","-87.636427","2789","0","2789"
"308","330","Lincoln Ave & Addison St","41.946176","-87.673308","463","0","463"
"309","331","Halsted St & Clybourn Ave (*)","41.909668","-87.648128","3099","0","3099"
"310","332","Burling St (Halsted) & Diversey Pkwy (Temp)","41.93314","-87.64776","1168","0","1168"
"311","333","Ashland Ave & Blackhawk St","41.907066","-87.667252","1491","0","1491"
"312","334","Lake Shore Dr & Belmont Ave","41.940775","-87.639192","3580","0","3580"
"313","335","Calumet Ave & 35th St","41.831379","-87.618034","247","0","247"
"314","336","Cottage Grove Ave & 47th St","41.809855","-87.606755","204","0","204"
"315","337","Clark St & Chicago Ave","41.89675","-87.63089","2404","0","2404"
"316","338","Calumet Ave & 18th St","41.857611","-87.619407","1750","0","1750"
"317","339","Emerald Ave & 31st St","41.838198","-87.645143","735","0","735"
"318","340","Clark St & Wrightwood Ave","41.929546","-87.643118","3478","0","3478"
"319","341","Adler Planetarium","41.866095","-87.607267","3831","0","3831"
"320","342","Wolcott Ave & Polk St","41.871262","-87.673688","1961","0","1961"
"321","343","Racine Ave & Wrightwood Ave","41.928887","-87.658971","924","0","924"
"322","344","Ravenswood Ave & Lawrence Ave","41.96909","-87.674237","2714","0","2714"
"323","345","Lake Park Ave & 56th St","41.793242","-87.587782","906","0","906"
"324","346","Ada St & Washington Blvd","41.88283","-87.661206","1792","0","1792"
"325","347","Ashland Ave & Grace St","41.950687","-87.6687","819","0","819"
"326","348","California Ave & 21st St","41.853804066","-87.695742399","174","0","174"
"327","349","Halsted St & Wrightwood Ave","41.929143","-87.649077","2044","0","2044"
"328","350","Ashland Ave & Chicago Ave","41.895974323","-87.667725384","1560","0","1560"
"329","351","Cottage Grove Ave & 51st St","41.803038","-87.606615","161","0","161"
"330","352","Jeffery Blvd & 67th St","41.773517551","-87.577142826","145","0","145"
"331","353","Clark St & Touhy Ave","42.012560115","-87.674367115","124","0","124"
"332","354","Sheridan Rd & Greenleaf Ave","42.010586563","-87.662412095","368","0","368"
"333","355","South Shore Dr & 67th St","41.773643","-87.567514","159","0","159"
"334","356","Stony Island Ave & 71st St","41.766492937","-87.586460878","50","0","50"
"335","359","Larrabee St & Division St","41.90348607","-87.643353494","1922","0","1922"
"336","360","DIVVY Map Frame B/C Station",NA,NA,"48","0","48"
"337","361","DIVVY CASSETTE REPAIR MOBILE STATION",NA,NA,"11","0","11"
"338","364","Larrabee St & Oak St","41.900219493","-87.642985468","2057","0","2057"
"339","365","Halsted St & North Branch St","41.899390285","-87.648544908","553","0","553"
"340","366","Loomis St & Archer Ave","41.84163254","-87.657434953","167","0","167"
"341","367","Racine Ave & 35th St","41.830688565","-87.656210661","124","0","124"
"342","368","Ashland Ave & Archer Ave","41.839208684","-87.665609859","85","0","85"
"343","369","Wood St & 35th St","41.830104654","-87.670298309","118","0","118"
"344","370","Calumet Ave & 21st St","41.854184249","-87.619153741","766","0","766"
"345","373","Kedzie Ave & Chicago Ave","41.895465303","-87.706127884","166","0","166"
"346","374","Western Ave & Walton St","41.898417689","-87.686596016","1176","0","1176"
"347","375","Sacramento Blvd & Franklin Blvd","41.890468792","-87.702607512","152","0","152"
"348","376","Artesian Ave & Hubbard St","41.88949182","-87.688219365","1051","0","1051"
"349","377","Kedzie Ave & Lake St","41.884603285","-87.706303744","164","0","164"
"350","378","California Ave & Lake St","41.884453957","-87.696298137","105","0","105"
"351","381","Western Ave & Monroe St","41.879787709","-87.686112808","337","0","337"
"352","382","Western Ave & Congress Pkwy","41.874748851","-87.686445276","479","0","479"
"353","383","Ashland Ave & Harrison St","41.87295","-87.66913","1043","0","1043"
"354","384","Halsted St & 51st St","41.80183164","-87.645213904","10","0","10"
"355","385","Princeton Ave & Garfield Blvd","41.794982","-87.633124","106","0","106"
"356","386","Halsted St & 56th St","41.792929646","-87.644990057","7","0","7"
"357","388","Halsted St & 63rd St","41.779381142","-87.644620815","96","0","96"
"358","390","Wentworth Ave & 63rd St","41.780079633","-87.629746305","59","0","59"
"359","391","Halsted St & 69th St","41.76906172","-87.644613578","37","0","37"
"360","392","Perry Ave & 69th St","41.76929309","-87.628195929","15","0","15"
"361","393","Calumet Ave & 71st St","41.765508006","-87.616917925","11","0","11"
"362","394","Clark St & 9th St (AMLI)","41.870816","-87.631246","912","0","912"
"363","395","Jeffery Blvd & 76th St","41.757120068","-87.575839359","20","0","20"
"364","396","Yates Blvd & 75th St","41.758768","-87.56644","23","0","23"
"365","397","Saginaw Ave & Exchange Ave",NA,NA,"82","0","82"
"366","398","Rainbow Beach","41.757871448","-87.54938625","61","0","61"
"367","399","South Shore Dr & 74th St","41.76218896","-87.55927465","89","0","89"
"368","400","Cottage Grove Ave & 71st St","41.765719037","-87.604959713","11","0","11"
"369","401","Shields Ave & 28th Pl","41.842733","-87.635491","272","0","272"
"370","402","Shields Ave & 31st St","41.838464","-87.635406","485","0","485"
"371","403","Wentworth Ave & 33rd St","41.834529886","-87.631822981","329","0","329"
"372","405","Wentworth Ave & 35th St","41.830777","-87.632504","311","0","311"
"373","406","Lake Park Ave & 35th St","41.831274235","-87.608799195","501","0","501"
"374","407","State St & Pershing Rd","41.823015238","-87.626568018","14","0","14"
"375","408","Union Ave & Root St","41.819102","-87.643278","74","0","74"
"376","409","Shields Ave & 43rd St","41.816207679","-87.63481935","5","0","5"
"377","410","Prairie Ave & 43rd St","41.816658893","-87.619412462","130","0","130"
"378","411","Halsted St & 47th Pl","41.808133915","-87.645616554","46","0","46"
"379","412","Princeton Ave & 47th St","41.809317709","-87.633449288","52","0","52"
"380","413","Woodlawn Ave & Lake Park Ave","41.81409271","-87.597005148","203","0","203"
"381","414","Canal St & Taylor St","41.870257","-87.639474","1529","0","1529"
"382","415","Calumet Ave & 51st St","41.802294651","-87.61805358","70","0","70"
"383","416","Dorchester Ave & 49th St","41.805772","-87.592464","219","0","219"
"384","417","Cornell Ave & Hyde Park Blvd","41.802406","-87.586924","1362","0","1362"
"385","418","Ellis Ave & 53rd St","41.799336263","-87.600958115","935","0","935"
"386","419","Lake Park Ave & 53rd St","41.799494294","-87.586449896","893","0","893"
"387","420","Ellis Ave & 55th St","41.794300621","-87.601449773","1509","0","1509"
"388","421","MLK Jr Dr & 56th St (*)","41.793429457","-87.615853262","83","0","83"
"389","422","DuSable Museum","41.791568011","-87.607852177","180","0","180"
"390","423","University Ave & 57th St","41.791478","-87.599861","2605","0","2605"
"391","424","Museum of Science and Industry","41.79172821","-87.583945009","955","0","955"
"392","425","Harper Ave & 59th St","41.787942813","-87.58831517","539","0","539"
"393","426","Ellis Ave & 60th St","41.785097146","-87.601072761","1595","0","1595"
"394","427","Cottage Grove Ave & 63rd St","41.780600945","-87.605836093","160","0","160"
"395","428","Dorchester Ave & 63rd St","41.780405646","-87.591415989","130","0","130"
"396","429","Cottage Grove Ave & 67th St","41.773720952","-87.60563486","37","0","37"
"397","430","MLK Jr Dr & 63rd St","41.780080637","-87.615942857","19","0","19"
"398","431","Eberhart Ave & 61st St","41.784141693","-87.61330783","42","0","42"
"399","432","Clark St & Lunt Ave","42.009011181","-87.674111724","603","0","603"
"400","433","Kedzie Ave & Harrison St","41.873599675","-87.704870749","22","0","22"
"401","434","Ogden Ave & Roosevelt Rd","41.866501483","-87.68469707","741","0","741"
"402","435","Kedzie Ave & Roosevelt Rd","41.866492782","-87.706496176","39","0","39"
"403","436","Fairfield Ave & Roosevelt Rd","41.866624","-87.694521","94","0","94"
"404","437","Washtenaw Ave & Ogden Ave (*)","41.861930493","-87.693450451","171","0","171"
"405","438","Central Park Ave & Ogden Ave","41.854063504","-87.715117335","59","0","59"
"406","439","Kedzie Ave & 21st St","41.853533632","-87.705073032","92","0","92"
"407","440","Central Park Ave & 24th St","41.8481","-87.715068","42","0","42"
"408","441","Kedzie Ave & 24th St","41.848190945","-87.705413746","54","0","54"
"409","442","California Ave & 23rd Pl","41.849109692","-87.695139807","121","0","121"
"410","443","Millard Ave & 26th St","41.844531125","-87.715921998","119","0","119"
"411","444","Albany Ave & 26th St","41.844475014","-87.702013013","71","0","71"
"412","445","California Ave & 26th St","41.843679915","-87.694968581","75","0","75"
"413","446","Western Ave & 28th St","41.841517708","-87.685131441","14","0","14"
"414","447","Glenwood Ave & Morse Ave","42.007971923","-87.665502394","791","0","791"
"415","448","Warren Park East","42.004549622","-87.680666145","117","0","117"
"416","449","Clark St & Columbia Ave","42.004450629","-87.672402405","367","0","367"
"417","450","Warren Park West","42.001785","-87.688829","134","0","134"
"418","451","Sheridan Rd & Loyola Ave","42.00104378","-87.661198243","970","0","970"
"419","452","Western Ave & Granville Ave","41.994161369","-87.689438282","150","0","150"
"420","453","Clark St & Schreiber Ave","41.999251822","-87.671377339","278","0","278"
"421","454","Broadway & Granville Ave","41.994779688","-87.660284535","982","0","982"
"422","455","Maplewood Ave & Peterson Ave","41.990236029","-87.69336964","94","0","94"
"423","456","2112 W Peterson Ave","41.991178","-87.683593","109","0","109"
"424","457","Clark St & Elmdale Ave","41.990860448","-87.66972363","497","0","497"
"425","458","Broadway & Thorndale Ave","41.989742511","-87.660140621","942","0","942"
"426","459","Lakefront Trail & Bryn Mawr Ave",NA,NA,"2712","0","2712"
"427","460","Clark St & Bryn Mawr Ave","41.983593","-87.669154","890","0","890"
"428","461","Broadway & Ridge Ave","41.984044611","-87.660273829","860","0","860"
"429","462","Winchester (Ravenswood) Ave & Balmoral Ave","41.979762","-87.67753","537","0","537"
"430","463","Clark St & Berwyn Ave","41.978030622","-87.668564916","1494","0","1494"
"431","464","Damen Ave & Foster Ave","41.975614805","-87.679459039","777","0","777"
"432","465","Marine Dr & Ainslie St","41.9716","-87.650154","1289","0","1289"
"433","466","Ridge Blvd & Touhy Ave","42.012132277","-87.682912644","127","0","127"
"434","467","Western Ave & Lunt Ave","42.008594397","-87.690492239","244","0","244"
"435","468","Budlong Woods Library","41.983664709","-87.696422561","114","0","114"
"436","469","St. Louis Ave & Balmoral Ave","41.980394235","-87.716114961","129","0","129"
"437","470","Kedzie Ave & Foster Ave","41.975672","-87.709261","176","0","176"
"438","471","Francisco Ave & Foster Ave","41.975632725","-87.701419439","285","0","285"
"439","472","Lincoln Ave & Winona St","41.974911297","-87.692502559","283","0","283"
"440","474","Christiana Ave & Lawrence Ave","41.968354494","-87.711830667","301","0","301"
"441","475","Washtenaw Ave & Lawrence Ave","41.968987","-87.696027","451","0","451"
"442","476","Kedzie Ave & Leland Ave","41.966686362","-87.708051981","267","0","267"
"443","477","Manor Ave & Leland Ave","41.965875","-87.700825","204","0","204"
"444","478","Rockwell St & Eastwood Ave","41.96590014","-87.693638494","484","0","484"
"445","479","Drake Ave & Montrose Ave","41.961154076","-87.716569073","362","0","362"
"446","480","Albany Ave & Montrose Ave","41.961041","-87.705866","197","0","197"
"447","481","California Ave & Montrose Ave","41.961068","-87.695439","342","0","342"
"448","482","Campbell Ave & Montrose Ave","41.961525933","-87.691165041","486","0","486"
"449","483","Avondale Ave & Irving Park Rd","41.953393","-87.732002","321","0","321"
"450","484","Monticello Ave & Irving Park Rd","41.954004839","-87.71912818","262","0","262"
"451","485","Sawyer Ave & Irving Park Rd","41.953586179","-87.7093108","240","0","240"
"452","486","Oakley Ave & Irving Park Rd","41.954340852","-87.686079624","404","0","404"
"453","487","California Ave & Byron St","41.952162193","-87.698051113","331","0","331"
"454","488","Pulaski Rd & Eddy St (Temp)","41.946264","-87.731023","85","0","85"
"455","489","Drake Ave & Addison St","41.947326","-87.717582","301","0","301"
"456","490","Troy St & Elston Ave","41.945243568","-87.706649901","399","0","399"
"457","491","Talman Ave & Addison St","41.946635831","-87.694614758","488","0","488"
"458","492","Leavitt St & Addison St","41.946655","-87.683359","446","0","446"
"459","493","Western Ave & Roscoe St","41.943034","-87.687288","679","0","679"
"460","494","Kedzie Ave & Bryn Mawr Ave","41.982229759","-87.708886564","75","0","75"
"461","495","Keystone Ave & Montrose Ave","41.961108016","-87.728970101","174","0","174"
"462","496","Avers Ave & Belmont Ave","41.939408","-87.723574","284","0","284"
"463","497","Kimball Ave & Belmont Ave","41.939398","-87.711561","375","0","375"
"464","498","California Ave & Fletcher St","41.938428791","-87.698007756","442","0","442"
"465","499","Kosciuszko Park","41.930585371","-87.723777364","420","0","420"
"466","500","Central Park Ave & Elbridge Ave","41.935337283","-87.716889294","286","0","286"
"467","501","Richmond St & Diversey Ave","41.931901969","-87.70119513","553","0","553"
"468","502","California Ave & Altgeld St","41.92669","-87.697668","590","0","590"
"469","503","Drake Ave & Fullerton Ave","41.924815597","-87.714495063","440","0","440"
"470","504","Campbell Ave & Fullerton Ave","41.924632472","-87.689307006","683","0","683"
"471","505","Winchester Ave & Elston Ave","41.92409085","-87.676460075","623","0","623"
"472","506","Spaulding Ave & Armitage Ave","41.917108035","-87.710220963","909","0","909"
"473","507","Humboldt Blvd & Armitage Ave","41.917513394","-87.701808955","1005","0","1005"
"474","508","Central Park Ave & North Ave","41.909656876","-87.716631952","293","0","293"
"475","509","Troy St & North Ave","41.909769302","-87.705280487","317","0","317"
"476","510","Spaulding Ave & Division St","41.902706594","-87.709219571","250","0","250"
"477","511","Albany Ave & Bloomingdale Ave","41.914026713","-87.705126462","998","0","998"
"478","514","Ridge Blvd & Howard St","42.019276","-87.68452","108","0","108"
"479","515","Paulina St & Howard St","42.019159","-87.673573","475","0","475"
"480","517","Clark St & Jarvis Ave","42.015963","-87.675005","203","0","203"
"481","518","Conservatory Dr & Lake St","41.885502","-87.716866","129","0","129"
"482","519","Wolcott Ave & Fargo Ave","42.016977","-87.677725","33","0","33"
"483","520","Greenview Ave & Jarvis Ave","42.015962","-87.66857","474","0","474"
"484","522","Bosworth Ave & Howard St","42.019537","-87.669563","165","0","165"
"485","523","Eastlake Ter & Rogers Ave","42.020887281","-87.665057927","449","0","449"
"486","524","Austin Blvd & Chicago Ave","41.894887","-87.774704","44","0","44"
"487","525","Glenwood Ave & Touhy Ave","42.012701","-87.666058","229","0","229"
"488","526","Oakley Ave & Touhy Ave","42.012342","-87.688243","96","0","96"
"489","527","Western Ave & Howard St","42.018901","-87.690048","151","0","151"
"490","528","Pulaski Rd & Lake St","41.885409","-87.726491","25","0","25"
"491","529","Cicero Ave & Lake St","41.886841","-87.745261","8","0","8"
"492","530","Laramie Ave & Kinzie St","41.887832","-87.755527","10","0","10"
"493","531","Central Ave & Lake St","41.887664","-87.765469","33","0","33"
"494","532","Austin Blvd & Lake St","41.888059607","-87.774265409","75","0","75"
"495","533","Central Park Blvd & 5th Ave","41.875679","-87.71547","18","0","18"
"496","534","Karlov Ave & Madison St","41.88085","-87.727907","6","0","6"
"497","535","Pulaski Rd & Congress Pkwy","41.874325","-87.725704","20","0","20"
"498","536","Kostner Ave & Lake St","41.885928","-87.73541","13","0","13"
"499","537","Kenton Ave & Madison St","41.880708","-87.741018","5","0","5"
"500","538","Cicero Ave & Flournoy St","41.872131","-87.746619","2","0","2"
"501","539","Cicero Ave & Quincy St","41.877613","-87.745405","18","0","18"
"502","540","Laramie Ave & Madison St","41.880207","-87.755337","0","0","0"
"503","541","Central Ave & Harrison St","41.872993","-87.764499","13","0","13"
"504","542","Central Ave & Madison St","41.880121","-87.763238","7","0","7"
"505","543","Laramie Ave & Gladys Ave","41.875806","-87.755285","4","0","4"
"506","544","Austin Blvd & Madison St","41.880281","-87.774453","26","0","26"
"507","545","Kostner Ave & Adams St","41.877917","-87.735737","6","0","6"
"508","546","Damen Ave & Pershing Rd","41.823192","-87.676597","38","0","38"
"509","547","Ashland Ave & Pershing Rd","41.823465","-87.665577","75","0","75"
"510","548","Morgan St & Pershing Rd","41.823613","-87.650931","15","0","15"
"511","549","Marshfield Ave & 44th St","41.813996","-87.666589","9","0","9"
"512","550","Central Ave & Chicago Ave","41.894958","-87.764902","15","0","15"
"513","551","Hoyne Ave & 47th St","41.808227","-87.67718","24","0","24"
"514","552","Ashland Ave & McDowell Ave","41.80887","-87.66454","60","0","60"
"515","553","Elizabeth St & 47th St","41.80839","-87.656526","17","0","17"
"516","554","Damen Ave & 51st St","41.800908","-87.674684","41","0","41"
"517","555","Ashland Ave & 50th St","41.803023","-87.664699","22","0","22"
"518","556","Throop St & 52nd St","41.799659","-87.657195","4","0","4"
"519","557","Seeley Ave & Garfield Blvd","41.794087","-87.675478","5","0","5"
"520","558","Ashland Ave & Garfield Blvd","41.792822","-87.664429","8","0","8"
"521","559","Racine Ave & Garfield Blvd","41.794228","-87.655073","15","0","15"
"522","560","Marshfield Ave & 59th St","41.786833","-87.666215","9","0","9"
"523","561","Damen Ave & 59th St","41.785861065","-87.67414391","8","0","8"
"524","562","Racine Ave & 61st St","41.783189","-87.654372","2","0","2"
"525","563","Ashland Ave & 63rd St","41.779374","-87.664843","34","0","34"
"526","564","Racine Ave & 65th St","41.775393","-87.654308","0","0","0"
"527","566","Ashland Ave & 69th St",NA,NA,"15","0","15"
"528","567","May St & 69th St","41.768938","-87.652934","17","0","17"
"529","568","Normal Ave & 72nd St","41.75797","-87.63121","18","0","18"
"530","569","Woodlawn Ave & 75th St","41.75916","-87.595751","4","0","4"
"531","570","Evans Ave & 75th St","41.75849","-87.60641","90","0","90"
"532","571","Vernon Ave & 75th St","41.758361","-87.614138","7","0","7"
"533","572","State St & 76th St","41.756971","-87.624621","41","0","41"
"534","573","State St & 79th St","41.750794","-87.624424","55","0","55"
"535","574","Eberhart (Vernon) Ave & 79th St","41.75094","-87.61379","17","0","17"
"536","575","Cottage Grove Ave & 78th St","41.753174","-87.605026","20","0","20"
"537","576","Greenwood Ave & 79th St","41.751294","-87.597552","13","0","13"
"538","577","Stony Island Ave & South Chicago Ave","41.751173","-87.585337","22","0","22"
"539","578","Bennett Ave & 79th St","41.751785","-87.578496","23","0","23"
"540","579","Phillips Ave & 79th St","41.75182","-87.565211","22","0","22"
"541","580","Exchange Ave & 79th St","41.751731","-87.552812","131","0","131"
"542","583","Stony Island Ave & 82nd St","41.746559","-87.586005","13","0","13"
"543","584","Ellis Ave & 83rd St","41.744123","-87.599034","13","0","13"
"544","585","Cottage Grove Ave & 83rd St","41.743441","-87.604836","38","0","38"
"545","586","MLK Jr Dr & 83rd St","41.743116","-87.6148","20","0","20"
"546","587","Wabash Ave & 83rd St","41.743316","-87.622849","10","0","10"
"547","588","South Chicago Ave & 83rd St","41.743921","-87.575225","10","0","10"
"548","589","Milwaukee Ave & Cuyler Ave","41.954468","-87.749594","83","0","83"
"549","590","Kilbourn Ave & Irving Park Rd","41.953733","-87.740569","142","0","142"
"550","591","Kilbourn Ave & Milwaukee Ave","41.947070894","-87.740008235","114","0","114"
"551","592","Knox Ave & Montrose Ave","41.960631","-87.745359","112","0","112"
"552","593","Halsted St & 59th St","41.787539","-87.644874","0","0","0"
"553","594","Western Blvd & 48th Pl","41.805661","-87.683392","16","0","16"
"554","595","Wabash Ave & 87th St","41.736646","-87.622634","20","0","20"
"555","596","Benson Ave & Church St","42.048214","-87.683485","1228","0","1228"
"556","597","Chicago Ave & Washington St","42.032562","-87.679101","556","0","556"
"557","598","Elmwood Ave & Austin St","42.025784","-87.684107","183","0","183"
"558","599","Valli Produce - Evanston Plaza","42.039742","-87.699413","145","0","145"
"559","600","Dodge Ave & Church St","42.048308","-87.698224","166","0","166"
"560","601","Central St Metra","42.063598","-87.69873","279","0","279"
"561","602","Central St & Girard Ave","42.064313","-87.686152","229","0","229"
"562","603","Chicago Ave & Sheridan Rd","42.050491","-87.677821","725","0","725"
"563","604","Sheridan Rd & Noyes St (NU)","42.058239","-87.677432","695","0","695"
"564","605","University Library (NU)","42.052939","-87.673447","882","0","882"
"565","619","Keystone Ave & Fullerton Ave","41.92459","-87.72785","150","0","150"
"566","620","Orleans St & Chestnut St (NEXT Apts)","41.898203","-87.637536","1538","0","1538"
"567","621","Aberdeen St & Randolph St","41.884114","-87.654264","1165","0","1165"
"568","622","California Ave & Cortez St","41.900363","-87.696704","695","0","695"
"569","623","Michigan Ave & 8th St","41.872773","-87.623981","3467","0","3467"
"570","624","Dearborn St & Van Buren St (*)","41.876268","-87.629155","1040","0","1040"
"571","625","Chicago Ave & Dempster St","42.034631852","-87.699187696","441","0","441"
"572","626","Delano Ct & Roosevelt Rd","41.867491","-87.63219","1408","0","1408"
"573","627","LaSalle Dr & Huron St (*)","41.894877","-87.632326","1618","0","1618"
