"","station_id","station_name","lat","long","start_n","end_n","e_start_n","e_end_n","c_start_n","c_end_n","total","classic","electric"
"1",2,"Buckingham Fountain",41.8765,-87.6205,282,263,0,0,282,263,545,545,0
"2",3,"Shedd Aquarium",41.8672,-87.6154,9,7,0,0,9,7,16,16,0
"3",4,"Burnham Harbor",41.8563,-87.6133,1,0,0,0,1,0,0,0,0
"4",5,"State St & Harrison St",41.8741,-87.6277,131,141,0,0,131,141,272,272,0
"5",6,"Dusable Harbor",41.887,-87.6128,16,12,0,0,16,12,28,28,0
"6",7,"Field Blvd & South Water St",41.8863,-87.6175,177,185,0,0,177,185,362,362,0
"7",9,"Leavitt St & Archer Ave",41.8288,-87.6806,27,16,0,0,27,16,43,43,0
"8",11,"Jeffery Blvd & 71st St",41.7666,-87.5764,33,45,0,0,33,45,78,78,0
"9",12,"South Shore Dr & 71st St",41.7664,-87.5657,56,60,0,0,56,60,116,116,0
"10",13,"Wilton Ave & Diversey Pkwy",41.9324,-87.6527,318,279,0,0,318,279,597,597,0
"11",14,"Morgan St & 18th St",41.8581,-87.6511,122,121,0,0,122,121,243,243,0
"12",15,"Racine Ave & 18th St",41.8582,-87.6565,163,139,0,0,163,139,302,302,0
"13",16,"Paulina Ave & North Ave",41.9103,-87.6701,197,218,0,0,197,218,415,415,0
"14",17,"Honore St & Division St",41.9031,-87.6739,257,265,0,0,257,265,522,522,0
"15",18,"Wacker Dr & Washington St",41.8831,-87.6373,77,101,0,0,77,101,178,178,0
"16",19,"Throop (Loomis) St & Taylor St",41.869,-87.6591,133,130,0,0,133,130,263,263,0
"17",20,"Sheffield Ave & Kingsbury St",41.9105,-87.6531,255,264,0,0,255,264,519,519,0
"18",21,"Aberdeen St & Jackson Blvd",41.8777,-87.6548,322,322,0,0,322,322,644,644,0
"19",22,"May St & Taylor St",41.8695,-87.6555,219,234,0,0,219,234,453,453,0
"20",23,"Orleans St & Elm St",41.9029,-87.6377,167,152,0,0,167,152,319,319,0
"21",24,"Fairbanks Ct & Grand Ave",41.8918,-87.6206,490,487,0,0,490,487,977,977,0
"22",25,"Michigan Ave & Pearson St",41.8977,-87.6235,134,133,0,0,134,133,267,267,0
"23",26,"McClurg Ct & Illinois St",41.8904,-87.6175,396,419,0,0,396,419,815,815,0
"24",27,"Larrabee St & North Ave",41.9102,-87.6435,163,147,0,0,163,147,310,310,0
"25",28,"Larrabee St & Menomonee St",41.9147,-87.6433,148,150,0,0,148,150,298,298,0
"26",29,"Noble St & Milwaukee Ave",41.9007,-87.6626,264,256,0,0,264,256,520,520,0
"27",30,"Ashland Ave & Augusta Blvd",41.8996,-87.6677,180,183,0,0,180,183,363,363,0
"28",31,"Franklin St & Chicago Ave",41.8967,-87.6357,235,257,0,0,235,257,492,492,0
"29",32,"Racine Ave & Congress Pkwy",41.8746,-87.657,74,62,0,0,74,62,136,136,0
"30",33,"State St & Van Buren St",41.8772,-87.6278,97,102,0,0,97,102,199,199,0
"31",34,"Cannon Dr & Fullerton Ave",41.9268,-87.6344,218,178,0,0,218,178,396,396,0
"32",35,"Streeter Dr & Grand Ave",41.8923,-87.612,202,157,0,0,202,157,359,359,0
"33",36,"Franklin St & Jackson Blvd",41.8777,-87.6353,259,262,0,0,259,262,521,521,0
"34",37,"Dearborn St & Adams St",41.8794,-87.6298,142,129,0,0,142,129,271,271,0
"35",38,"Clark St & Lake St",41.886,-87.6309,232,212,0,0,232,212,444,444,0
"36",39,"Wabash Ave & Adams St",41.8795,-87.6257,81,90,0,0,81,90,171,171,0
"37",40,"LaSalle St & Adams St",41.8793,-87.632,94,89,0,0,94,89,183,183,0
"38",41,"Federal St & Polk St",41.8721,-87.6295,377,385,0,0,377,385,762,762,0
"39",42,"Wabash Ave & Cermak Rd",41.8526,-87.6265,91,106,0,0,91,106,197,197,0
"40",43,"Michigan Ave & Washington St",41.884,-87.6247,204,265,0,0,204,265,469,469,0
"41",44,"State St & Randolph St",41.8847,-87.6277,216,205,0,0,216,205,421,421,0
"42",45,"Michigan Ave & Ida B Wells Dr",41.8762,-87.6244,91,87,0,0,91,87,178,178,0
"43",46,"Wells St & Walton St",41.8999,-87.6344,203,167,0,0,203,167,370,370,0
"44",47,"State St & Kinzie St",41.8892,-87.6278,229,253,0,0,229,253,482,482,0
"45",48,"Larrabee St & Kingsbury St",41.8978,-87.6429,210,182,0,0,210,182,392,392,0
"46",49,"Dearborn St & Monroe St",41.8813,-87.6295,329,356,0,0,329,356,685,685,0
"47",50,"Clark St & Ida B Wells Dr",41.8759,-87.6306,132,143,0,0,132,143,275,275,0
"48",51,"Clark St & Randolph St",41.8846,-87.6319,197,208,0,0,197,208,405,405,0
"49",52,"Michigan Ave & Lake St",41.886,-87.6241,365,338,0,0,365,338,703,703,0
"50",53,"Wells St & Huron St",41.8947,-87.6344,529,523,0,0,529,523,1052,1052,0
"51",54,"Ogden Ave & Chicago Ave",41.8964,-87.6541,228,274,0,0,228,274,502,502,0
"52",55,"Halsted St & Roosevelt Rd",41.8673,-87.6486,57,56,0,0,57,56,113,113,0
"53",56,"Desplaines St & Kinzie St",41.8887,-87.6444,720,678,0,0,720,678,1398,1398,0
"54",57,"Clinton St & Roosevelt Rd",41.8671,-87.6411,219,291,0,0,219,291,510,510,0
"55",58,"Marshfield Ave & Cortland St",41.916,-87.6689,145,121,0,0,145,121,266,266,0
"56",59,"Wabash Ave & Roosevelt Rd",41.8672,-87.626,506,643,0,0,506,643,1149,1149,0
"57",60,"Dayton St & North Ave",41.9106,-87.6494,173,159,0,0,173,159,332,332,0
"58",61,"Wood St & Milwaukee Ave",41.9077,-87.6726,322,321,0,0,322,321,643,643,0
"59",62,"McCormick Place",41.8514,-87.6188,87,74,0,0,87,74,161,161,0
"60",66,"Clinton St & Lake St",41.8856,-87.6418,353,402,0,0,353,402,755,755,0
"61",67,"Sheffield Ave & Fullerton Ave",41.9256,-87.6537,279,254,0,0,279,254,533,533,0
"62",68,"Clinton St & Tilden St",41.8759,-87.6408,70,63,0,0,70,63,133,133,0
"63",69,"Damen Ave & Pierce Ave",41.9094,-87.6777,402,416,0,0,402,416,818,818,0
"64",71,"Morgan St & Lake St",41.8855,-87.6523,280,299,0,0,280,299,579,579,0
"65",72,"Wabash Ave & 16th St",41.8604,-87.6258,259,262,0,0,259,262,521,521,0
"66",73,"Jefferson St & Monroe St",41.8804,-87.6427,221,182,0,0,221,182,403,403,0
"67",74,"Kingsbury St & Erie St",41.8938,-87.6417,499,470,0,0,499,470,969,969,0
"68",75,"Canal St & Jackson Blvd",41.8772,-87.6394,69,84,0,0,69,84,153,153,0
"69",76,"Lake Shore Dr & Monroe St",41.881,-87.6167,63,47,0,0,63,47,110,110,0
"70",77,"Clinton St & Madison St",41.8822,-87.6411,337,365,0,0,337,365,702,702,0
"71",80,"Aberdeen St & Monroe St",41.8804,-87.6555,202,170,0,0,202,170,372,372,0
"72",81,"Daley Center Plaza",41.8842,-87.6296,206,205,0,0,206,205,411,411,0
"73",84,"Milwaukee Ave & Grand Ave",41.8916,-87.6484,366,350,0,0,366,350,716,716,0
"74",85,"Michigan Ave & Oak St",41.901,-87.6238,186,157,0,0,186,157,343,343,0
"75",86,"Eckhart Park",41.8964,-87.661,222,234,0,0,222,234,456,456,0
"76",87,"Racine Ave & Fullerton Ave",41.9256,-87.6584,142,136,0,0,142,136,278,278,0
"77",88,"Racine Ave & Randolph St",41.8841,-87.6569,108,89,0,0,108,89,197,197,0
"78",89,"Financial Pl & Ida B Wells Dr",41.875,-87.6331,129,121,0,0,129,121,250,250,0
"79",90,"Millennium Park",41.881,-87.6241,299,263,0,0,299,263,562,562,0
"80",91,"Clinton St & Washington Blvd",41.8834,-87.6412,253,302,0,0,253,302,555,555,0
"81",92,"Carpenter St & Huron St",41.8946,-87.6534,268,267,0,0,268,267,535,535,0
"82",93,"Sheffield Ave & Willow St",41.9137,-87.6529,353,364,0,0,353,364,717,717,0
"83",94,"Clark St & Armitage Ave",41.9183,-87.6363,626,595,0,0,626,595,1221,1221,0
"84",95,"Stony Island Ave & 64th St",41.7789,-87.5866,16,13,0,0,16,13,29,29,0
"85",96,"Desplaines St & Randolph St",41.8846,-87.6446,160,139,0,0,160,139,299,299,0
"86",97,"Field Museum",41.8653,-87.6179,17,22,0,0,17,22,39,39,0
"87",98,"LaSalle St & Washington St",41.8827,-87.6325,216,207,0,0,216,207,423,423,0
"88",99,"Lake Shore Dr & Ohio St",41.8926,-87.6145,257,264,0,0,257,264,521,521,0
"89",100,"Orleans St & Merchandise Mart Plaza",41.8882,-87.6364,169,159,0,0,169,159,328,328,0
"90",101,"63rd St Beach",41.781,-87.5761,39,34,0,0,39,34,73,73,0
"91",102,"Stony Island Ave & 67th St",41.7735,-87.5853,14,17,0,0,14,17,31,31,0
"92",103,"Clinton St & Polk St",41.8715,-87.6409,12,7,0,0,12,7,19,19,0
"93",106,"State St & Pearson St",41.8974,-87.6287,240,207,0,0,240,207,447,447,0
"94",107,"Desplaines St & Jackson Blvd",41.8783,-87.6439,464,426,0,0,464,426,890,890,0
"95",108,"Halsted St & Polk St",41.8718,-87.6466,89,87,0,0,89,87,176,176,0
"96",109,"900 W Harrison St",41.8748,-87.6498,129,127,0,0,129,127,256,256,0
"97",110,"Dearborn St & Erie St",41.894,-87.6293,730,785,0,0,730,785,1515,1515,0
"98",111,"Sedgwick St & Huron St",41.8947,-87.6384,184,184,0,0,184,184,368,368,0
"99",112,"Green St & Randolph St",41.8837,-87.6487,228,234,0,0,228,234,462,462,0
"100",113,"Bissell St & Armitage Ave",41.9184,-87.6522,331,376,0,0,331,376,707,707,0
"101",114,"Sheffield Ave & Waveland Ave",41.9494,-87.6545,556,524,0,0,556,524,1080,1080,0
"102",115,"Sheffield Ave & Wellington Ave",41.9363,-87.6527,354,411,0,0,354,411,765,765,0
"103",116,"Western Ave & Winnebago Ave",41.9155,-87.687,214,204,0,0,214,204,418,418,0
"104",117,"Wilton Ave & Belmont Ave",41.9402,-87.653,500,491,0,0,500,491,991,991,0
"105",118,"Sedgwick St & North Ave",41.9114,-87.6387,337,307,0,0,337,307,644,644,0
"106",119,"Ashland Ave & Lake St",41.8859,-87.6672,89,119,0,0,89,119,208,208,0
"107",120,"Wentworth Ave & Cermak Rd (Temp)",41.853,-87.6306,88,94,0,0,88,94,182,182,0
"108",121,"Blackstone Ave & Hyde Park Blvd",41.8026,-87.5904,127,122,0,0,127,122,249,249,0
"109",122,"Ogden Ave & Congress Pkwy",41.875,-87.6733,80,72,0,0,80,72,152,152,0
"110",123,"California Ave & Milwaukee Ave",41.9227,-87.6972,218,222,0,0,218,222,440,440,0
"111",124,"Damen Ave & Cullerton St",41.855,-87.6757,85,80,0,0,85,80,165,165,0
"112",125,"Rush St & Hubbard St",41.8902,-87.6262,160,150,0,0,160,150,310,310,0
"113",126,"Clark St & North Ave",41.912,-87.6319,229,248,0,0,229,248,477,477,0
"114",127,"Lincoln Ave & Fullerton Ave",41.9259,-87.6493,370,372,0,0,370,372,742,742,0
"115",128,"Damen Ave & Chicago Ave",41.8958,-87.6772,399,465,0,0,399,465,864,864,0
"116",129,"Blue Island Ave & 18th St",41.8576,-87.6615,142,173,0,0,142,173,315,315,0
"117",130,"Damen Ave & Division St",41.9033,-87.6784,242,172,0,0,242,172,414,414,0
"118",131,"Lincoln Ave & Belmont Ave",41.9394,-87.6684,171,191,0,0,171,191,362,362,0
"119",132,"Wentworth Ave & 24th St (Temp)",41.8501,-87.6321,66,65,0,0,66,65,131,131,0
"120",133,"Kingsbury St & Kinzie St",41.8892,-87.6385,416,408,0,0,416,408,824,824,0
"121",134,"Peoria St & Jackson Blvd",41.8776,-87.6496,246,263,0,0,246,263,509,509,0
"122",135,"Halsted St & 21st St",41.8538,-87.6466,50,48,0,0,50,48,98,98,0
"123",136,"Racine Ave & 13th St",41.8651,-87.657,29,26,0,0,29,26,55,55,0
"124",137,"Morgan Ave & 14th Pl",41.8624,-87.6511,75,91,0,0,75,91,166,166,0
"125",138,"Clybourn Ave & Division St",41.9046,-87.6406,205,211,0,0,205,211,416,416,0
"126",140,"Dearborn Pkwy & Delaware Pl",41.899,-87.6299,534,549,0,0,534,549,1083,1083,0
"127",141,"Clark St & Lincoln Ave",41.9157,-87.6346,542,490,0,0,542,490,1032,1032,0
"128",142,"McClurg Ct & Erie St",41.8945,-87.6179,407,393,0,0,407,393,800,800,0
"129",143,"Sedgwick St & Webster Ave",41.9222,-87.6389,300,293,0,0,300,293,593,593,0
"130",144,"Larrabee St & Webster Ave",41.9218,-87.6441,576,612,0,0,576,612,1188,1188,0
"131",145,"Mies van der Rohe Way & Chestnut St",41.8986,-87.6219,361,309,0,0,361,309,670,670,0
"132",146,"Loomis St & Jackson Blvd",41.8779,-87.662,102,134,0,0,102,134,236,236,0
"133",147,"Indiana Ave & 26th St",41.8457,-87.6225,111,105,0,0,111,105,216,216,0
"134",148,"State St & 33rd St",41.8347,-87.6258,164,162,0,0,164,162,326,326,0
"135",149,"Calumet Ave & 33rd St",41.8349,-87.6179,75,92,0,0,75,92,167,167,0
"136",150,"Fort Dearborn Dr & 31st St",41.8386,-87.6082,25,22,0,0,25,22,47,47,0
"137",152,"Lincoln Ave & Diversey Pkwy",41.9322,-87.6586,197,204,0,0,197,204,401,401,0
"138",153,"Southport Ave & Wellington Ave",41.9357,-87.6636,264,271,0,0,264,271,535,535,0
"139",154,"Southport Ave & Belmont Ave",41.9395,-87.6638,157,169,0,0,157,169,326,326,0
"140",156,"Clark St & Wellington Ave",41.9365,-87.6475,434,427,0,0,434,427,861,861,0
"141",157,"Lake Shore Dr & Wellington Ave",41.9367,-87.6368,451,452,0,0,451,452,903,903,0
"142",158,"Milwaukee Ave & Wabansia Ave",41.9126,-87.6814,264,293,0,0,264,293,557,557,0
"143",159,"Claremont Ave & Hirsch St",41.9078,-87.6859,82,87,0,0,82,87,169,169,0
"144",160,"Campbell Ave & North Ave",41.9105,-87.6896,151,149,0,0,151,149,300,300,0
"145",161,"Rush St & Superior St",41.8958,-87.6259,298,254,0,0,298,254,552,552,0
"146",162,"Damen Ave & Wellington Ave",41.9359,-87.6784,113,113,0,0,113,113,226,226,0
"147",163,"Damen Ave & Clybourn Ave",41.9319,-87.6779,158,177,0,0,158,177,335,335,0
"148",164,"Franklin St & Lake St",41.8858,-87.6355,294,269,0,0,294,269,563,563,0
"149",165,"Clark St & Grace St",41.9508,-87.6592,358,346,0,0,358,346,704,704,0
"150",166,"Ashland Ave & Wrightwood Ave",41.9288,-87.6685,172,164,0,0,172,164,336,336,0
"151",167,"Damen Ave & Coulter St",41.8492,-87.6756,16,19,0,0,16,19,35,35,0
"152",168,"Michigan Ave & 14th St",41.8641,-87.6237,277,273,0,0,277,273,550,550,0
"153",169,"Canal St & Harrison St",41.8743,-87.6396,58,56,0,0,58,56,114,114,0
"154",170,"Clinton St & 18th St",41.858,-87.6408,69,66,0,0,69,66,135,135,0
"155",171,"May St & Cullerton St",41.8551,-87.6541,34,31,0,0,34,31,65,65,0
"156",172,"Rush St & Cedar St",41.9023,-87.6277,300,305,0,0,300,305,605,605,0
"157",173,"Mies van der Rohe Way & Chicago Ave",41.8969,-87.6217,396,364,0,0,396,364,760,760,0
"158",174,"Canal St & Madison St",41.8821,-87.6398,154,86,0,0,154,86,240,240,0
"159",175,"Wells St & Polk St",41.8726,-87.6335,304,287,0,0,304,287,591,591,0
"160",176,"Clark St & Elm St",41.903,-87.6313,850,893,0,0,850,893,1743,1743,0
"161",177,"Theater on the Lake",41.9263,-87.6308,38,33,0,0,38,33,71,71,0
"162",178,"State St & 19th St",41.8566,-87.6275,69,71,0,0,69,71,140,140,0
"163",179,"MLK Jr Dr & Pershing Rd",41.8246,-87.6168,58,67,0,0,58,67,125,125,0
"164",180,"Ritchie Ct & Banks St",41.9069,-87.6262,276,260,0,0,276,260,536,536,0
"165",181,"LaSalle St & Illinois St",41.8908,-87.6317,221,242,0,0,221,242,463,463,0
"166",182,"Wells St & Elm St",41.9032,-87.6343,523,469,0,0,523,469,992,992,0
"167",183,"Damen Ave & Thomas St (Augusta Blvd)",41.9013,-87.6774,208,194,0,0,208,194,402,402,0
"168",184,"State St & 35th St",41.8309,-87.628,52,52,0,0,52,52,104,104,0
"169",185,"Stave St & Armitage Ave",41.9177,-87.6914,90,94,0,0,90,94,184,184,0
"170",186,"Ogden Ave & Race Ave",41.8918,-87.6588,241,229,0,0,241,229,470,470,0
"171",188,"Greenview Ave & Fullerton Ave",41.9253,-87.6658,177,166,0,0,177,166,343,343,0
"172",190,"Southport Ave & Wrightwood Ave",41.9288,-87.6639,222,221,0,0,222,221,443,443,0
"173",191,"Canal St & Monroe St",41.8817,-87.6395,54,43,0,0,54,43,97,97,0
"174",192,"Canal St & Adams St",41.8793,-87.6399,207,180,0,0,207,180,387,387,0
"175",193,"State St & 29th St",41.8417,-87.6269,31,23,0,0,31,23,54,54,0
"176",194,"Wabash Ave & Wacker Pl",41.8869,-87.626,173,161,0,0,173,161,334,334,0
"177",195,"Columbus Dr & Randolph St",41.8847,-87.6195,538,423,0,0,538,423,961,961,0
"178",196,"Cityfront Plaza Dr & Pioneer Ct",41.8906,-87.6221,259,236,0,0,259,236,495,495,0
"179",197,"Michigan Ave & Madison St",41.8821,-87.6251,171,158,0,0,171,158,329,329,0
"180",198,"Green St & Madison St",41.8819,-87.6488,385,508,0,0,385,508,893,893,0
"181",199,"Wabash Ave & Grand Ave",41.8915,-87.6268,614,606,0,0,614,606,1220,1220,0
"182",200,"MLK Jr Dr & 47th St",41.8099,-87.6163,31,29,0,0,31,29,60,60,0
"183",201,"Indiana Ave & 40th St",41.8217,-87.6216,11,9,0,0,11,9,20,20,0
"184",202,"Halsted St & 18th St",41.8575,-87.6463,102,112,0,0,102,112,214,214,0
"185",203,"Western Ave & 21st St",41.8541,-87.6858,40,52,0,0,40,52,92,92,0
"186",204,"Prairie Ave & Garfield Blvd",41.7949,-87.6187,19,20,0,0,19,20,39,39,0
"187",205,"Paulina St & 18th St",41.8579,-87.6687,140,155,0,0,140,155,295,295,0
"188",206,"Halsted St & Archer Ave",41.8472,-87.6468,39,62,0,0,39,62,101,101,0
"189",207,"Emerald Ave & 28th St",41.8436,-87.6454,89,85,0,0,89,85,174,174,0
"190",208,"Laflin St & Cullerton St",41.8549,-87.6636,121,130,0,0,121,130,251,251,0
"191",209,"Normal Ave & Archer Ave",41.8495,-87.6406,52,59,0,0,52,59,111,111,0
"192",210,"Ashland Ave & Division St",41.9035,-87.6677,530,540,0,0,530,540,1070,1070,0
"193",211,"St. Clair St & Erie St",41.8944,-87.6227,686,695,0,0,686,695,1381,1381,0
"194",212,"Wells St & Hubbard St",41.8899,-87.6343,422,403,0,0,422,403,825,825,0
"195",213,"Leavitt St & North Ave",41.9102,-87.6823,161,156,0,0,161,156,317,317,0
"196",214,"Damen Ave & Grand Ave",41.8912,-87.6769,157,151,0,0,157,151,308,308,0
"197",215,"Damen Ave & Madison St",41.8814,-87.6749,51,41,0,0,51,41,92,92,0
"198",216,"California Ave & Division St",41.903,-87.6975,178,203,0,0,178,203,381,381,0
"199",217,"Elizabeth (May) St & Fulton St",41.8866,-87.658,94,122,0,0,94,122,216,216,0
"200",218,"Wells St & 19th St",41.8568,-87.6339,3,4,0,0,3,4,7,7,0
"201",219,"Damen Ave & Cortland St",41.916,-87.6773,300,316,0,0,300,316,616,616,0
"202",220,"Clark St & Drummond Pl",41.9312,-87.6443,431,462,0,0,431,462,893,893,0
"203",222,"Milwaukee Ave & Rockwell St",41.9202,-87.693,113,125,0,0,113,125,238,238,0
"204",223,"Clifton Ave & Armitage Ave",41.9182,-87.6569,237,200,0,0,237,200,437,437,0
"205",224,"Halsted St & Willow St",41.9139,-87.6488,287,281,0,0,287,281,568,568,0
"206",225,"Halsted St & Dickens Ave",41.9199,-87.6488,320,322,0,0,320,322,642,642,0
"207",226,"Racine Ave & Belmont Ave",41.9397,-87.6589,240,229,0,0,240,229,469,469,0
"208",227,"Southport Ave & Waveland Ave",41.9482,-87.6639,390,394,0,0,390,394,784,784,0
"209",228,"Damen Ave & Melrose Ave",41.9406,-87.6785,153,147,0,0,153,147,300,300,0
"210",229,"Southport Ave & Roscoe St",41.9437,-87.664,282,301,0,0,282,301,583,583,0
"211",230,"Lincoln Ave & Roscoe St",41.9433,-87.671,235,242,0,0,235,242,477,477,0
"212",231,"Sheridan Rd & Montrose Ave",41.9617,-87.6546,336,398,0,0,336,398,734,734,0
"213",232,"Pine Grove Ave & Waveland Ave",41.9493,-87.6463,444,437,0,0,444,437,881,881,0
"214",233,"Sangamon St & Washington Blvd",41.8832,-87.6511,137,126,0,0,137,126,263,263,0
"215",234,"Clark St & Montrose Ave",41.9616,-87.666,138,148,0,0,138,148,286,286,0
"216",236,"Sedgwick St & Schiller St",41.9076,-87.6386,155,137,0,0,155,137,292,292,0
"217",237,"MLK Jr Dr & 29th St",41.8421,-87.617,237,206,0,0,237,206,443,443,0
"218",238,"Wolcott (Ravenswood) Ave & Montrose Ave",41.9614,-87.6762,124,120,0,0,124,120,244,244,0
"219",239,"Western Ave & Leland Ave",41.9665,-87.6884,141,155,0,0,141,155,296,296,0
"220",240,"Sheridan Rd & Irving Park Rd",41.9542,-87.6544,314,334,0,0,314,334,648,648,0
"221",241,"Morgan St & Polk St",41.8717,-87.651,114,102,0,0,114,102,216,216,0
"222",242,"Damen Ave & Leland Ave",41.9671,-87.679,191,189,0,0,191,189,380,380,0
"223",243,"Lincoln Ave & Sunnyside Ave",41.963,-87.6848,137,144,0,0,137,144,281,281,0
"224",244,"Ravenswood Ave & Irving Park Rd",41.9547,-87.6739,159,134,0,0,159,134,293,293,0
"225",245,"Clarendon Ave & Junior Ter",41.961,-87.6496,190,192,0,0,190,192,382,382,0
"226",246,"Ashland Ave & Belle Plaine Ave",41.9561,-87.6688,50,54,0,0,50,54,104,104,0
"227",247,"Shore Dr & 55th St",41.7952,-87.5807,106,82,0,0,106,82,188,188,0
"228",248,"Woodlawn Ave & 55th St",41.7953,-87.5965,69,73,0,0,69,73,142,142,0
"229",250,"Ashland Ave & Wellington Ave",41.9361,-87.6698,165,168,0,0,165,168,333,333,0
"230",251,"Clarendon Ave & Leland Ave",41.968,-87.65,125,108,0,0,125,108,233,233,0
"231",252,"Greenwood Ave & 47th St",41.8098,-87.5994,37,49,0,0,37,49,86,86,0
"232",253,"Winthrop Ave & Lawrence Ave",41.9688,-87.6577,97,100,0,0,97,100,197,197,0
"233",254,"Pine Grove Ave & Irving Park Rd",41.9544,-87.648,323,288,0,0,323,288,611,611,0
"234",255,"Indiana Ave & Roosevelt Rd",41.8679,-87.623,544,551,0,0,544,551,1095,1095,0
"235",256,"Broadway & Sheridan Rd",41.9528,-87.65,372,306,0,0,372,306,678,678,0
"236",257,"Lincoln Ave & Waveland Ave",41.9488,-87.6753,209,215,0,0,209,215,424,424,0
"237",258,"Logan Blvd & Elston Ave",41.9295,-87.6842,179,204,0,0,179,204,383,383,0
"238",259,"California Ave & Francis Pl (Temp)",41.9185,-87.6974,88,95,0,0,88,95,183,183,0
"239",260,"Kedzie Ave & Milwaukee Ave",41.9296,-87.7079,271,337,0,0,271,337,608,608,0
"240",261,"Hermitage Ave & Polk St",41.8715,-87.6699,116,103,0,0,116,103,219,219,0
"241",262,"Halsted St & 37th St",41.8271,-87.6457,20,18,0,0,20,18,38,38,0
"242",263,"Rhodes Ave & 32nd St",41.8362,-87.6135,90,76,0,0,90,76,166,166,0
"243",264,"Stetson Ave & South Water St",41.8868,-87.6223,200,177,0,0,200,177,377,377,0
"244",265,"Cottage Grove Ave & Oakwood Blvd",41.823,-87.6071,22,19,0,0,22,19,41,41,0
"245",267,"Lake Park Ave & 47th St",41.8094,-87.5919,35,42,0,0,35,42,77,77,0
"246",268,"Lake Shore Dr & North Blvd",41.9117,-87.6268,388,392,0,0,388,392,780,780,0
"247",270,"Stony Island Ave & 75th St",41.7587,-87.5869,19,26,0,0,19,26,45,45,0
"248",271,"Cottage Grove Ave & 43rd St",41.8165,-87.6066,54,61,0,0,54,61,115,115,0
"249",272,"Indiana Ave & 31st St",41.8388,-87.6219,98,97,0,0,98,97,195,195,0
"250",273,"Michigan Ave & 18th St",41.8578,-87.6246,235,233,0,0,235,233,468,468,0
"251",274,"Racine Ave & 15th St",41.8613,-87.6566,27,40,0,0,27,40,67,67,0
"252",275,"Ashland Ave & 13th St",41.8652,-87.6665,79,82,0,0,79,82,161,161,0
"253",276,"California Ave & North Ave",41.9104,-87.6972,150,148,0,0,150,148,298,298,0
"254",277,"Ashland Ave & Grand Ave",41.8911,-87.6666,156,161,0,0,156,161,317,317,0
"255",278,"Wallace St & 35th St",41.8306,-87.6413,49,56,0,0,49,56,105,105,0
"256",279,"Halsted St & 35th St",41.8307,-87.6472,31,33,0,0,31,33,64,64,0
"257",280,"Morgan St & 31st St",41.8378,-87.6511,60,45,0,0,60,45,105,105,0
"258",281,"Western Ave & 24th St",41.8485,-87.6851,30,30,0,0,30,30,60,60,0
"259",282,"Halsted St & Maxwell St",41.8649,-87.6471,98,101,0,0,98,101,199,199,0
"260",283,"LaSalle St & Jackson Blvd",41.8782,-87.6319,186,185,0,0,186,185,371,371,0
"261",284,"Michigan Ave & Jackson Blvd",41.8779,-87.6241,138,123,0,0,138,123,261,261,0
"262",285,"Wood St & Hubbard St",41.8899,-87.6715,57,68,0,0,57,68,125,125,0
"263",286,"Franklin St & Adams St (Temp)",41.8794,-87.6355,90,88,0,0,90,88,178,178,0
"264",287,"Franklin St & Monroe St",41.8803,-87.6352,201,223,0,0,201,223,424,424,0
"265",288,"Larrabee St & Armitage Ave",41.9181,-87.6437,222,210,0,0,222,210,432,432,0
"266",289,"Wells St & Concord Ln",41.9121,-87.6347,525,567,0,0,525,567,1092,1092,0
"267",290,"Kedzie Ave & Palmer Ct",41.9215,-87.7073,170,145,0,0,170,145,315,315,0
"268",291,"Wells St & Evergreen Ave",41.9067,-87.6348,509,493,0,0,509,493,1002,1002,0
"269",292,"Southport Ave & Clark St",41.9571,-87.6642,125,126,0,0,125,126,251,251,0
"270",293,"Broadway & Wilson Ave",41.9652,-87.6581,189,247,0,0,189,247,436,436,0
"271",294,"Broadway & Berwyn Ave",41.9784,-87.6598,219,282,0,0,219,282,501,501,0
"272",295,"Broadway & Argyle St",41.9738,-87.6597,208,179,0,0,208,179,387,387,0
"273",296,"Broadway & Belmont Ave",41.9401,-87.6455,247,255,0,0,247,255,502,502,0
"274",297,"Paulina St & Montrose Ave",41.9615,-87.6714,77,99,0,0,77,99,176,176,0
"275",298,"Lincoln Ave & Belle Plaine Ave",41.956,-87.6803,135,126,0,0,135,126,261,261,0
"276",299,"Halsted St & Roscoe St",41.9437,-87.649,447,453,0,0,447,453,900,900,0
"277",300,"Broadway & Barry Ave",41.9377,-87.6441,605,675,0,0,605,675,1280,1280,0
"278",301,"Clark St & Schiller St",41.908,-87.6315,576,513,0,0,576,513,1089,1089,0
"279",302,"Sheffield Ave & Wrightwood Ave",41.9287,-87.6538,286,310,0,0,286,310,596,596,0
"280",303,"Broadway & Cornelia Ave",41.9455,-87.6464,453,468,0,0,453,468,921,921,0
"281",304,"Broadway & Waveland Ave",41.9491,-87.6486,338,379,0,0,338,379,717,717,0
"282",305,"Western Ave & Division St",41.9029,-87.6873,137,142,0,0,137,142,279,279,0
"283",306,"Sheridan Rd & Buena Ave",41.9585,-87.655,268,195,0,0,268,195,463,463,0
"284",307,"Southport Ave & Clybourn Ave",41.9208,-87.6637,130,130,0,0,130,130,260,260,0
"285",308,"Seeley Ave & Roscoe St",41.9434,-87.6796,140,160,0,0,140,160,300,300,0
"286",309,"Leavitt St & Armitage Ave",41.9178,-87.6824,70,80,0,0,70,80,150,150,0
"287",310,"Damen Ave & Charleston St",41.9201,-87.6779,116,117,0,0,116,117,233,233,0
"288",311,"Leavitt St & Lawrence Ave",41.9689,-87.684,92,75,0,0,92,75,167,167,0
"289",312,"Clarendon Ave & Gordon Ter",41.9579,-87.6495,353,345,0,0,353,345,698,698,0
"290",313,"Lakeview Ave & Fullerton Pkwy",41.9259,-87.639,428,386,0,0,428,386,814,814,0
"291",314,"Ravenswood Ave & Berteau Ave",41.9579,-87.6736,83,77,0,0,83,77,160,160,0
"292",315,"Elston Ave & Wabansia Ave",41.9129,-87.6642,113,113,0,0,113,113,226,226,0
"293",316,"Damen Ave & Sunnyside Ave",41.9633,-87.6793,120,121,0,0,120,121,241,241,0
"294",317,"Wood St & Taylor St",41.8692,-87.671,242,188,0,0,242,188,430,430,0
"295",318,"Southport Ave & Irving Park Rd",41.9542,-87.6644,164,150,0,0,164,150,314,314,0
"296",319,"Greenview Ave & Diversey Pkwy",41.9326,-87.6659,110,120,0,0,110,120,230,230,0
"297",320,"Loomis St & Lexington St",41.8722,-87.6615,407,382,0,0,407,382,789,789,0
"298",321,"Wabash Ave & 9th St",41.8708,-87.6257,336,351,0,0,336,351,687,687,0
"299",322,"Kimbark Ave & 53rd St",41.7996,-87.5947,223,257,0,0,223,257,480,480,0
"300",323,"Sheridan Rd & Lawrence Ave",41.9695,-87.6547,110,131,0,0,110,131,241,241,0
"301",324,"Stockton Dr & Wrightwood Ave",41.9313,-87.6387,584,509,0,0,584,509,1093,1093,0
"302",325,"Clark St & Winnemac Ave",41.9733,-87.6678,259,267,0,0,259,267,526,526,0
"303",326,"Clark St & Leland Ave",41.9671,-87.6674,244,226,0,0,244,226,470,470,0
"304",327,"Sheffield Ave & Webster Ave",41.9215,-87.6538,240,235,0,0,240,235,475,475,0
"305",328,"Ellis Ave & 58th St",41.7887,-87.6013,71,62,0,0,71,62,133,133,0
"306",329,"Lake Shore Dr & Diversey Pkwy",41.9326,-87.6364,353,350,0,0,353,350,703,703,0
"307",330,"Lincoln Ave & Addison St",41.9462,-87.6733,72,86,0,0,72,86,158,158,0
"308",331,"Halsted St & Clybourn Ave",41.9097,-87.6481,325,325,0,0,325,325,650,650,0
"309",332,"Burling St (Halsted) & Diversey Pkwy (Temp)",41.9331,-87.6478,328,402,0,0,328,402,730,730,0
"310",333,"Ashland Ave & Blackhawk St",41.9071,-87.6673,252,252,0,0,252,252,504,504,0
"311",334,"Lake Shore Dr & Belmont Ave",41.9408,-87.6392,332,362,0,0,332,362,694,694,0
"312",335,"Calumet Ave & 35th St",41.8314,-87.618,44,48,0,0,44,48,92,92,0
"313",336,"Cottage Grove Ave & 47th St",41.8099,-87.6068,47,53,0,0,47,53,100,100,0
"314",337,"Clark St & Chicago Ave",41.8968,-87.6309,396,401,0,0,396,401,797,797,0
"315",338,"Calumet Ave & 18th St",41.8576,-87.6194,158,163,0,0,158,163,321,321,0
"316",339,"Emerald Ave & 31st St",41.8382,-87.6451,120,122,0,0,120,122,242,242,0
"317",340,"Clark St & Wrightwood Ave",41.9295,-87.6431,437,441,0,0,437,441,878,878,0
"318",341,"Adler Planetarium",41.8661,-87.6073,7,5,0,0,7,5,12,12,0
"319",342,"Wolcott Ave & Polk St",41.8713,-87.6737,224,202,0,0,224,202,426,426,0
"320",343,"Racine Ave & Wrightwood Ave",41.9289,-87.659,139,142,0,0,139,142,281,281,0
"321",344,"Ravenswood Ave & Lawrence Ave",41.9691,-87.6742,267,253,0,0,267,253,520,520,0
"322",345,"Lake Park Ave & 56th St",41.7932,-87.5878,105,105,0,0,105,105,210,210,0
"323",346,"Ada St & Washington Blvd",41.8828,-87.6612,173,167,0,0,173,167,340,340,0
"324",347,"Ashland Ave & Grace St",41.9507,-87.6687,139,118,0,0,139,118,257,257,0
"325",348,"California Ave & 21st St",41.8538,-87.6957,39,43,0,0,39,43,82,82,0
"326",349,"Halsted St & Wrightwood Ave",41.9291,-87.6491,364,390,0,0,364,390,754,754,0
"327",350,"Ashland Ave & Chicago Ave",41.896,-87.6677,209,215,0,0,209,215,424,424,0
"328",351,"Cottage Grove Ave & 51st St",41.803,-87.6066,98,93,0,0,98,93,191,191,0
"329",352,"Jeffery Blvd & 67th St",41.7735,-87.5771,26,24,0,0,26,24,50,50,0
"330",353,"Clark St & Touhy Ave",42.0126,-87.6744,38,39,0,0,38,39,77,77,0
"331",354,"Sheridan Rd & Greenleaf Ave",42.0106,-87.6624,108,100,0,0,108,100,208,208,0
"332",355,"South Shore Dr & 67th St",41.7736,-87.5675,49,44,0,0,49,44,93,93,0
"333",356,"Stony Island Ave & 71st St",41.7665,-87.5865,7,4,0,0,7,4,11,11,0
"334",359,"Larrabee St & Division St",41.9035,-87.6434,409,407,0,0,409,407,816,816,0
"335",364,"Larrabee St & Oak St",41.9002,-87.643,159,167,0,0,159,167,326,326,0
"336",365,"Halsted St & North Branch St",41.8994,-87.6485,61,54,0,0,61,54,115,115,0
"337",366,"Loomis St & Archer Ave",41.8416,-87.6574,32,27,0,0,32,27,59,59,0
"338",367,"Racine Ave & 35th St",41.8307,-87.656,29,22,0,0,29,22,51,51,0
"339",368,"Ashland Ave & Archer Ave",41.8392,-87.6656,29,28,0,0,29,28,57,57,0
"340",369,"Wood St & 35th St",41.8301,-87.6703,22,20,0,0,22,20,42,42,0
"341",370,"Calumet Ave & 21st St",41.8542,-87.6192,54,54,0,0,54,54,108,108,0
"342",373,"Kedzie Ave & Chicago Ave",41.8955,-87.7061,94,116,0,0,94,116,210,210,0
"343",374,"Western Ave & Walton St",41.8984,-87.6866,213,209,0,0,213,209,422,422,0
"344",375,"Sacramento Blvd & Franklin Blvd",41.8905,-87.7026,34,28,0,0,34,28,62,62,0
"345",376,"Artesian Ave & Hubbard St",41.8895,-87.6882,73,50,0,0,73,50,123,123,0
"346",377,"Kedzie Ave & Lake St",41.8846,-87.7063,55,62,0,0,55,62,117,117,0
"347",378,"California Ave & Lake St",41.8845,-87.6963,29,35,0,0,29,35,64,64,0
"348",381,"Western Ave & Monroe St",41.8798,-87.6861,57,67,0,0,57,67,124,124,0
"349",382,"Western Ave & Congress Pkwy",41.8747,-87.6864,76,110,0,0,76,110,186,186,0
"350",383,"Paulina St & Flournoy St",41.873,-87.6691,160,123,0,0,160,123,283,283,0
"351",384,"Halsted St & 51st St",41.8018,-87.6452,5,2,0,0,5,2,7,7,0
"352",385,"Princeton Ave & Garfield Blvd",41.795,-87.6331,11,10,0,0,11,10,21,21,0
"353",386,"Halsted St & 56th St",41.7929,-87.645,2,7,0,0,2,7,9,9,0
"354",388,"Halsted St & 63rd St",41.7794,-87.6446,13,8,0,0,13,8,21,21,0
"355",390,"Wentworth Ave & 63rd St",41.7801,-87.6297,7,15,0,0,7,15,22,22,0
"356",391,"Halsted St & 69th St",41.7691,-87.6446,1,1,0,0,1,1,2,2,0
"357",392,"Perry Ave & 69th St",41.7693,-87.6282,11,7,0,0,11,7,18,18,0
"358",393,"Calumet Ave & 71st St",41.7655,-87.6169,12,7,0,0,12,7,19,19,0
"359",394,"Clark St & 9th St (AMLI)",41.8708,-87.6312,143,135,0,0,143,135,278,278,0
"360",395,"Jeffery Blvd & 76th St",41.7571,-87.5758,6,11,0,0,6,11,17,17,0
"361",396,"Yates Blvd & 75th St",41.7588,-87.5664,8,9,0,0,8,9,17,17,0
"362",398,"Rainbow Beach",41.7579,-87.5494,1,1,0,0,1,1,2,2,0
"363",399,"South Shore Dr & 74th St",41.7622,-87.5593,8,9,0,0,8,9,17,17,0
"364",400,"Cottage Grove Ave & 71st St",41.7657,-87.605,10,10,0,0,10,10,20,20,0
"365",401,"Shields Ave & 28th Pl",41.8427,-87.6355,20,23,0,0,20,23,43,43,0
"366",402,"Shields Ave & 31st St",41.8385,-87.6354,48,49,0,0,48,49,97,97,0
"367",403,"Wentworth Ave & 33rd St",41.8345,-87.6318,21,21,0,0,21,21,42,42,0
"368",405,"Wentworth Ave & 35th St",41.8308,-87.6325,14,15,0,0,14,15,29,29,0
"369",406,"Lake Park Ave & 35th St",41.8313,-87.6088,75,69,0,0,75,69,144,144,0
"370",407,"State St & Pershing Rd",41.823,-87.6266,44,47,0,0,44,47,91,91,0
"371",408,"Union Ave & Root St",41.8191,-87.6433,7,5,0,0,7,5,12,12,0
"372",409,"Shields Ave & 43rd St",41.8162,-87.6348,2,0,0,0,2,0,0,0,0
"373",410,"Prairie Ave & 43rd St",41.8167,-87.6194,45,50,0,0,45,50,95,95,0
"374",411,"Halsted St & 47th Pl",41.8081,-87.6456,23,28,0,0,23,28,51,51,0
"375",412,"Princeton Ave & 47th St",41.8093,-87.6334,12,8,0,0,12,8,20,20,0
"376",413,"Woodlawn Ave & Lake Park Ave",41.8141,-87.597,75,75,0,0,75,75,150,150,0
"377",414,"Canal St & Taylor St",41.8703,-87.6395,86,89,0,0,86,89,175,175,0
"378",415,"Calumet Ave & 51st St",41.8023,-87.6181,30,33,0,0,30,33,63,63,0
"379",416,"Dorchester Ave & 49th St",41.8058,-87.5925,40,44,0,0,40,44,84,84,0
"380",417,"Cornell Ave & Hyde Park Blvd",41.8024,-87.5869,134,114,0,0,134,114,248,248,0
"381",418,"Ellis Ave & 53rd St",41.7993,-87.601,139,122,0,0,139,122,261,261,0
"382",419,"Lake Park Ave & 53rd St",41.7995,-87.5864,66,62,0,0,66,62,128,128,0
"383",420,"Ellis Ave & 55th St",41.7943,-87.6015,58,71,0,0,58,71,129,129,0
"384",421,"MLK Jr Dr & 56th St",41.7934,-87.6159,23,21,0,0,23,21,44,44,0
"385",422,"DuSable Museum",41.7916,-87.6079,52,54,0,0,52,54,106,106,0
"386",423,"University Ave & 57th St",41.7915,-87.5999,92,88,0,0,92,88,180,180,0
"387",424,"Museum of Science and Industry",41.7917,-87.5839,72,76,0,0,72,76,148,148,0
"388",425,"Harper Ave & 59th St",41.7879,-87.5883,82,71,0,0,82,71,153,153,0
"389",426,"Ellis Ave & 60th St",41.7851,-87.6011,84,89,0,0,84,89,173,173,0
"390",427,"Cottage Grove Ave & 63rd St",41.7806,-87.6061,12,14,0,0,12,14,26,26,0
"391",428,"Dorchester Ave & 63rd St",41.7804,-87.5914,26,25,0,0,26,25,51,51,0
"392",429,"Cottage Grove Ave & 67th St",41.7737,-87.6056,21,19,0,0,21,19,40,40,0
"393",430,"MLK Jr Dr & 63rd St",41.7801,-87.6159,13,6,0,0,13,6,19,19,0
"394",431,"Eberhart Ave & 61st St",41.7841,-87.6133,8,11,0,0,8,11,19,19,0
"395",432,"Clark St & Lunt Ave",42.0091,-87.6742,67,62,0,0,67,62,129,129,0
"396",433,"Kedzie Ave & Harrison St",41.8736,-87.7049,6,6,0,0,6,6,12,12,0
"397",434,"Ogden Ave & Roosevelt Rd",41.8665,-87.6847,94,77,0,0,94,77,171,171,0
"398",435,"Kedzie Ave & Roosevelt Rd",41.8665,-87.7065,15,17,0,0,15,17,32,32,0
"399",436,"Fairfield Ave & Roosevelt Rd",41.8666,-87.6945,5,2,0,0,5,2,7,7,0
"400",437,"Washtenaw Ave & Ogden Ave",41.8619,-87.6935,27,22,0,0,27,22,49,49,0
"401",438,"Central Park Ave & Ogden Ave",41.8542,-87.7154,15,10,0,0,15,10,25,25,0
"402",439,"Kedzie Ave & 21st St",41.8535,-87.7051,28,18,0,0,28,18,46,46,0
"403",440,"Central Park Ave & 24th St",41.8481,-87.7151,4,2,0,0,4,2,6,6,0
"404",441,"Kedzie Ave & 24th St",41.8482,-87.7054,10,12,0,0,10,12,22,22,0
"405",442,"California Ave & 23rd Pl",41.8491,-87.6951,78,81,0,0,78,81,159,159,0
"406",443,"Millard Ave & 26th St",41.8446,-87.7159,17,18,0,0,17,18,35,35,0
"407",444,"Albany Ave & 26th St",41.8445,-87.702,7,12,0,0,7,12,19,19,0
"408",445,"California Ave & 26th St",41.844,-87.6953,2,0,0,0,2,0,0,0,0
"409",446,"Western Ave & 28th St",41.8415,-87.6851,40,27,0,0,40,27,67,67,0
"410",447,"Glenwood Ave & Morse Ave",42.008,-87.6655,143,133,0,0,143,133,276,276,0
"411",448,"Warren Park East",42.0046,-87.6807,73,77,0,0,73,77,150,150,0
"412",449,"Clark St & Columbia Ave",42.0045,-87.6724,55,57,0,0,55,57,112,112,0
"413",450,"Warren Park West",42.0018,-87.6888,51,42,0,0,51,42,93,93,0
"414",451,"Sheridan Rd & Loyola Ave",42.001,-87.6612,151,159,0,0,151,159,310,310,0
"415",452,"Western Ave & Granville Ave",41.9942,-87.6894,77,74,0,0,77,74,151,151,0
"416",453,"Clark St & Schreiber Ave",41.9993,-87.6714,106,119,0,0,106,119,225,225,0
"417",454,"Broadway & Granville Ave",41.9948,-87.6603,216,206,0,0,216,206,422,422,0
"418",455,"Maplewood Ave & Peterson Ave",41.9902,-87.6934,11,16,0,0,11,16,27,27,0
"419",456,"2112 W Peterson Ave",41.9912,-87.6836,42,50,0,0,42,50,92,92,0
"420",457,"Clark St & Elmdale Ave",41.9905,-87.6698,96,82,0,0,96,82,178,178,0
"421",458,"Broadway & Thorndale Ave",41.9897,-87.6601,135,169,0,0,135,169,304,304,0
"422",459,"Lakefront Trail & Bryn Mawr Ave",41.984,-87.6523,54,73,0,0,54,73,127,127,0
"423",460,"Clark St & Bryn Mawr Ave",41.9836,-87.6692,183,173,0,0,183,173,356,356,0
"424",461,"Broadway & Ridge Ave",41.984,-87.6603,237,185,0,0,237,185,422,422,0
"425",462,"Winchester (Ravenswood) Ave & Balmoral Ave",41.9798,-87.6775,56,54,0,0,56,54,110,110,0
"426",463,"Clark St & Berwyn Ave",41.978,-87.668,197,171,0,0,197,171,368,368,0
"427",464,"Damen Ave & Foster Ave",41.9756,-87.6795,103,86,0,0,103,86,189,189,0
"428",465,"Marine Dr & Ainslie St",41.9716,-87.6502,234,225,0,0,234,225,459,459,0
"429",466,"Ridge Blvd & Touhy Ave",42.0121,-87.6829,28,23,0,0,28,23,51,51,0
"430",467,"Western Ave & Lunt Ave",42.0086,-87.6905,93,82,0,0,93,82,175,175,0
"431",468,"Budlong Woods Library",41.9837,-87.6964,25,28,0,0,25,28,53,53,0
"432",469,"St. Louis Ave & Balmoral Ave",41.9804,-87.7161,66,74,0,0,66,74,140,140,0
"433",470,"Kedzie Ave & Foster Ave",41.9757,-87.7093,34,39,0,0,34,39,73,73,0
"434",471,"Francisco Ave & Foster Ave",41.9756,-87.7014,90,93,0,0,90,93,183,183,0
"435",472,"Lincoln Ave & Winona St",41.9749,-87.6925,49,55,0,0,49,55,104,104,0
"436",474,"Christiana Ave & Lawrence Ave",41.9684,-87.7118,50,53,0,0,50,53,103,103,0
"437",475,"Washtenaw Ave & Lawrence Ave",41.969,-87.696,115,114,0,0,115,114,229,229,0
"438",476,"Kedzie Ave & Leland Ave",41.9667,-87.7081,59,64,0,0,59,64,123,123,0
"439",477,"Manor Ave & Leland Ave",41.9659,-87.7008,109,112,0,0,109,112,221,221,0
"440",478,"Rockwell St & Eastwood Ave",41.9659,-87.6936,113,85,0,0,113,85,198,198,0
"441",479,"Drake Ave & Montrose Ave",41.9612,-87.7166,26,23,0,0,26,23,49,49,0
"442",480,"Albany Ave & Montrose Ave",41.961,-87.7059,69,72,0,0,69,72,141,141,0
"443",481,"California Ave & Montrose Ave",41.9611,-87.6954,207,209,0,0,207,209,416,416,0
"444",482,"Campbell Ave & Montrose Ave",41.9615,-87.6912,76,78,0,0,76,78,154,154,0
"445",483,"Avondale Ave & Irving Park Rd",41.9534,-87.732,21,32,0,0,21,32,53,53,0
"446",484,"Monticello Ave & Irving Park Rd",41.954,-87.7191,60,56,0,0,60,56,116,116,0
"447",485,"Sawyer Ave & Irving Park Rd",41.9536,-87.7093,49,54,0,0,49,54,103,103,0
"448",486,"Oakley Ave & Irving Park Rd",41.9543,-87.6861,74,72,0,0,74,72,146,146,0
"449",487,"California Ave & Byron St",41.9522,-87.6981,99,102,0,0,99,102,201,201,0
"450",488,"Pulaski Rd & Eddy St (Temp)",41.9463,-87.731,33,21,0,0,33,21,54,54,0
"451",489,"Drake Ave & Addison St",41.9473,-87.7176,28,29,0,0,28,29,57,57,0
"452",490,"Troy St & Elston Ave",41.9452,-87.7066,60,66,0,0,60,66,126,126,0
"453",491,"Talman Ave & Addison St",41.9466,-87.6946,109,87,0,0,109,87,196,196,0
"454",492,"Leavitt St & Addison St",41.9467,-87.6834,62,46,0,0,62,46,108,108,0
"455",493,"Western Ave & Roscoe St",41.943,-87.6873,112,123,0,0,112,123,235,235,0
"456",494,"Kedzie Ave & Bryn Mawr Ave",41.9824,-87.7089,51,52,0,0,51,52,103,103,0
"457",495,"Keystone Ave & Montrose Ave",41.9611,-87.729,42,44,0,0,42,44,86,86,0
"458",496,"Avers Ave & Belmont Ave",41.9394,-87.7236,77,68,0,0,77,68,145,145,0
"459",497,"Kimball Ave & Belmont Ave",41.9394,-87.7116,67,69,0,0,67,69,136,136,0
"460",498,"California Ave & Fletcher St",41.9384,-87.698,71,78,0,0,71,78,149,149,0
"461",499,"Kosciuszko Park",41.9306,-87.7238,77,84,0,0,77,84,161,161,0
"462",500,"Central Park Ave & Elbridge Ave",41.9353,-87.7169,98,82,0,0,98,82,180,180,0
"463",501,"Richmond St & Diversey Ave",41.9319,-87.7012,99,91,0,0,99,91,190,190,0
"464",502,"California Ave & Altgeld St",41.9267,-87.6977,114,105,0,0,114,105,219,219,0
"465",503,"Drake Ave & Fullerton Ave",41.9244,-87.7154,82,87,0,0,82,87,169,169,0
"466",504,"Campbell Ave & Fullerton Ave",41.9246,-87.6893,115,90,0,0,115,90,205,205,0
"467",505,"Winchester Ave & Elston Ave",41.9241,-87.6765,86,72,0,0,86,72,158,158,0
"468",506,"Spaulding Ave & Armitage Ave",41.9171,-87.7102,93,83,0,0,93,83,176,176,0
"469",507,"Humboldt Blvd & Armitage Ave",41.9175,-87.7018,147,133,0,0,147,133,280,280,0
"470",508,"Central Park Ave & North Ave",41.9097,-87.7166,37,46,0,0,37,46,83,83,0
"471",509,"Troy St & North Ave",41.9098,-87.7053,191,210,0,0,191,210,401,401,0
"472",510,"Spaulding Ave & Division St",41.9027,-87.7092,92,85,0,0,92,85,177,177,0
"473",511,"Albany Ave & Bloomingdale Ave",41.914,-87.7051,72,67,0,0,72,67,139,139,0
"474",514,"Ridge Blvd & Howard St",42.0193,-87.6845,23,21,0,0,23,21,44,44,0
"475",515,"Paulina St & Howard St",42.0192,-87.6736,27,54,0,0,27,54,81,81,0
"476",517,"Clark St & Jarvis Ave",42.016,-87.675,76,87,0,0,76,87,163,163,0
"477",518,"Conservatory Dr & Lake St",41.8855,-87.7169,26,27,0,0,26,27,53,53,0
"478",519,"Wolcott Ave & Fargo Ave",42.017,-87.6777,34,39,0,0,34,39,73,73,0
"479",520,"Greenview Ave & Jarvis Ave",42.016,-87.6686,146,108,0,0,146,108,254,254,0
"480",522,"Bosworth Ave & Howard St",42.0195,-87.6696,32,26,0,0,32,26,58,58,0
"481",523,"Eastlake Ter & Rogers Ave",42.0209,-87.6651,136,135,0,0,136,135,271,271,0
"482",524,"Austin Blvd & Chicago Ave",41.8949,-87.7747,10,13,0,0,10,13,23,23,0
"483",525,"Glenwood Ave & Touhy Ave",42.0127,-87.6661,58,49,0,0,58,49,107,107,0
"484",526,"Oakley Ave & Touhy Ave",42.0123,-87.6882,38,38,0,0,38,38,76,76,0
"485",527,"Western Ave & Howard St",42.0189,-87.69,28,24,0,0,28,24,52,52,0
"486",528,"Pulaski Rd & Lake St",41.8854,-87.7265,9,12,0,0,9,12,21,21,0
"487",529,"Cicero Ave & Lake St",41.8868,-87.7453,8,10,0,0,8,10,18,18,0
"488",530,"Laramie Ave & Kinzie St",41.8878,-87.7555,5,4,0,0,5,4,9,9,0
"489",531,"Central Ave & Lake St",41.8877,-87.7655,2,4,0,0,2,4,6,6,0
"490",532,"Austin Blvd & Lake St",41.8879,-87.7744,21,20,0,0,21,20,41,41,0
"491",533,"Central Park Blvd & 5th Ave",41.8757,-87.7155,5,7,0,0,5,7,12,12,0
"492",534,"Karlov Ave & Madison St",41.8809,-87.7279,9,5,0,0,9,5,14,14,0
"493",535,"Pulaski Rd & Congress Pkwy",41.8743,-87.7257,3,5,0,0,3,5,8,8,0
"494",536,"Kostner Ave & Lake St",41.8859,-87.7354,2,1,0,0,2,1,3,3,0
"495",538,"Cicero Ave & Flournoy St",41.8721,-87.7466,2,2,0,0,2,2,4,4,0
"496",539,"Cicero Ave & Quincy St",41.8776,-87.7454,9,7,0,0,9,7,16,16,0
"497",540,"Laramie Ave & Madison St",41.8802,-87.7553,5,10,0,0,5,10,15,15,0
"498",541,"Central Ave & Harrison St",41.873,-87.7645,5,4,0,0,5,4,9,9,0
"499",542,"Central Ave & Madison St",41.8801,-87.7632,6,5,0,0,6,5,11,11,0
"500",543,"Laramie Ave & Gladys Ave",41.8758,-87.7553,1,0,0,0,1,0,0,0,0
"501",544,"Austin Blvd & Madison St",41.8803,-87.7745,14,13,0,0,14,13,27,27,0
"502",545,"Kostner Ave & Adams St",41.8779,-87.7357,2,2,0,0,2,2,4,4,0
"503",546,"Damen Ave & Pershing Rd",41.8232,-87.6766,18,19,0,0,18,19,37,37,0
"504",547,"Ashland Ave & Pershing Rd",41.8235,-87.6656,26,21,0,0,26,21,47,47,0
"505",548,"Morgan St & Pershing Rd",41.8236,-87.6509,5,12,0,0,5,12,17,17,0
"506",549,"Marshfield Ave & 44th St",41.814,-87.6666,1,4,0,0,1,4,5,5,0
"507",550,"Central Ave & Chicago Ave",41.895,-87.7649,28,27,0,0,28,27,55,55,0
"508",551,"Hoyne Ave & 47th St",41.8082,-87.6772,3,7,0,0,3,7,10,10,0
"509",552,"Ashland Ave & McDowell Ave",41.8089,-87.6645,10,9,0,0,10,9,19,19,0
"510",554,"Damen Ave & 51st St",41.8009,-87.6747,2,4,0,0,2,4,6,6,0
"511",555,"Ashland Ave & 50th St",41.803,-87.6647,1,4,0,0,1,4,5,5,0
"512",556,"Throop St & 52nd St",41.7997,-87.6572,1,1,0,0,1,1,2,2,0
"513",557,"Seeley Ave & Garfield Blvd",41.7941,-87.6755,5,3,0,0,5,3,8,8,0
"514",558,"Ashland Ave & Garfield Blvd",41.7928,-87.6644,13,13,0,0,13,13,26,26,0
"515",559,"Racine Ave & Garfield Blvd",41.7942,-87.6551,12,11,0,0,12,11,23,23,0
"516",561,"Damen Ave & 59th St",41.786,-87.6742,1,3,0,0,1,3,4,4,0
"517",562,"Racine Ave & 61st St",41.7832,-87.6544,1,1,0,0,1,1,2,2,0
"518",563,"Ashland Ave & 63rd St",41.7794,-87.6648,1,1,0,0,1,1,2,2,0
"519",564,"Racine Ave & 65th St",41.7754,-87.6543,2,2,0,0,2,2,4,4,0
"520",565,"Ashland Ave & 66th St",41.7741,-87.6638,2,1,0,0,2,1,3,3,0
"521",566,"Ashland Ave & 69th St",41.7687,-87.6641,0,0,0,0,0,0,0,0,0
"522",567,"May St & 69th St",41.7689,-87.6529,3,5,0,0,3,5,8,8,0
"523",568,"Vincennes Ave & 75th St",41.758,-87.6312,3,1,0,0,3,1,4,4,0
"524",569,"Woodlawn Ave & 75th St",41.7592,-87.5958,4,4,0,0,4,4,8,8,0
"525",570,"Evans Ave & 75th St",41.7585,-87.6064,8,8,0,0,8,8,16,16,0
"526",571,"Vernon Ave & 75th St",41.7584,-87.6141,8,6,0,0,8,6,14,14,0
"527",572,"State St & 76th St",41.757,-87.6246,9,9,0,0,9,9,18,18,0
"528",573,"State St & 79th St",41.7508,-87.6244,12,3,0,0,12,3,15,15,0
"529",574,"Vernon Ave & 79th St",41.7509,-87.6138,1,2,0,0,1,2,3,3,0
"530",575,"Cottage Grove Ave & 78th St",41.7532,-87.605,6,5,0,0,6,5,11,11,0
"531",576,"Greenwood Ave & 79th St",41.7513,-87.5976,0,0,0,0,0,0,0,0,0
"532",577,"Stony Island Ave & South Chicago Ave",41.7512,-87.5853,10,6,0,0,10,6,16,16,0
"533",578,"Bennett Ave & 79th St",41.7518,-87.5785,2,0,0,0,2,0,0,0,0
"534",579,"Phillips Ave & 79th St",41.7518,-87.5652,22,20,0,0,22,20,42,42,0
"535",580,"Exchange Ave & 79th St",41.7517,-87.5528,5,6,0,0,5,6,11,11,0
"536",581,"Commercial Ave & 83rd St",41.7446,-87.5512,21,20,0,0,21,20,41,41,0
"537",582,"Phillips Ave & 83rd St",41.7445,-87.5651,0,0,0,0,0,0,0,0,0
"538",583,"Stony Island Ave & 82nd St",41.7466,-87.586,2,3,0,0,2,3,5,5,0
"539",584,"Ellis Ave & 83rd St",41.7441,-87.599,7,12,0,0,7,12,19,19,0
"540",585,"Cottage Grove Ave & 83rd St",41.7434,-87.6048,11,10,0,0,11,10,21,21,0
"541",586,"MLK Jr Dr & 83rd St",41.7431,-87.6148,6,5,0,0,6,5,11,11,0
"542",587,"Wabash Ave & 83rd St",41.7433,-87.6228,14,15,0,0,14,15,29,29,0
"543",588,"South Chicago Ave & 83rd St",41.7439,-87.5752,6,7,0,0,6,7,13,13,0
"544",589,"Milwaukee Ave & Cuyler Ave",41.9545,-87.7496,46,55,0,0,46,55,101,101,0
"545",590,"Kilbourn Ave & Irving Park Rd",41.9537,-87.7406,12,11,0,0,12,11,23,23,0
"546",591,"Kilbourn Ave & Milwaukee Ave",41.9488,-87.74,23,37,0,0,23,37,60,60,0
"547",592,"Knox Ave & Montrose Ave",41.9606,-87.7454,19,14,0,0,19,14,33,33,0
"548",593,"Halsted St & 59th St",41.7875,-87.6449,11,7,0,0,11,7,18,18,0
"549",594,"Western Blvd & 48th Pl",41.8057,-87.6834,9,10,0,0,9,10,19,19,0
"550",595,"Wabash Ave & 87th St",41.7366,-87.6226,18,21,0,0,18,21,39,39,0
"551",596,"Benson Ave & Church St",42.0482,-87.6835,110,110,0,0,110,110,220,220,0
"552",597,"Chicago Ave & Washington St",42.0326,-87.6791,109,114,0,0,109,114,223,223,0
"553",598,"Elmwood Ave & Austin St",42.0258,-87.6841,68,64,0,0,68,64,132,132,0
"554",599,"Valli Produce - Evanston Plaza",42.0397,-87.6994,18,24,0,0,18,24,42,42,0
"555",600,"Dodge Ave & Church St",42.0483,-87.6982,13,14,0,0,13,14,27,27,0
"556",601,"Central St Metra",42.0636,-87.6987,96,100,0,0,96,100,196,196,0
"557",602,"Central St & Girard Ave",42.0643,-87.6862,75,63,0,0,75,63,138,138,0
"558",603,"Chicago Ave & Sheridan Rd",42.0505,-87.6778,82,84,0,0,82,84,166,166,0
"559",604,"Sheridan Rd & Noyes St (NU)",42.0582,-87.6774,181,190,0,0,181,190,371,371,0
"560",605,"University Library (NU)",42.0529,-87.6734,72,56,0,0,72,56,128,128,0
"561",619,"Keystone Ave & Fullerton Ave",41.9246,-87.7279,15,18,0,0,15,18,33,33,0
"562",620,"Orleans St & Chestnut St (NEXT Apts)",41.8982,-87.6375,246,233,0,0,246,233,479,479,0
"563",621,"Aberdeen St & Randolph St",41.8841,-87.6543,125,131,0,0,125,131,256,256,0
"564",622,"California Ave & Cortez St",41.9004,-87.6967,130,144,0,0,130,144,274,274,0
"565",623,"Michigan Ave & 8th St",41.8728,-87.624,181,175,0,0,181,175,356,356,0
"566",624,"Dearborn St & Van Buren St",41.8763,-87.6292,74,70,0,0,74,70,144,144,0
"567",625,"Chicago Ave & Dempster St",42.0417,-87.6807,109,115,0,0,109,115,224,224,0
"568",626,"Delano Ct & Roosevelt Rd",41.8675,-87.6322,189,164,0,0,189,164,353,353,0
"569",627,"LaSalle Dr & Huron St",41.8949,-87.6323,295,292,0,0,295,292,587,587,0
"570",628,"Walsh Park",41.9146,-87.668,87,94,0,0,87,94,181,181,0
"571",630,"Kildare Ave & Montrose Ave",41.9611,-87.7357,26,21,0,0,26,21,47,47,0
"572",631,"Malcolm X College",41.8776,-87.6739,27,22,0,0,27,22,49,49,0
"573",632,"Clark St & Newport St",41.9445,-87.6547,67,105,0,0,67,105,172,172,0
"574",635,"Fairbanks St & Superior St",41.8957,-87.6201,241,271,0,0,241,271,512,512,0
"575",636,"Orleans St & Hubbard St",41.89,-87.6366,150,150,0,0,150,150,300,300,0
"576",637,"Wood St & Chicago Ave (*)",41.8956,-87.6721,22,49,0,0,22,49,71,71,0
"577",638,"Clinton St & Jackson Blvd",41.8781,-87.6398,120,112,0,0,120,112,232,232,0
"578",639,"Lakefront Trail & Wilson Ave",41.9658,-87.6454,1,0,0,0,1,0,0,0,0
"579",640,"Bernard St & Elston Ave",41.9499,-87.7139,16,20,0,0,16,20,36,36,0
"580",641,"Central Park Ave & Bloomingdale Ave",41.9142,-87.7168,6,10,0,0,6,10,16,16,0
"581",642,"Latrobe Ave & Chicago Ave",41.8947,-87.7569,5,5,0,0,5,5,10,10,0
"582",643,"Smith Park (*)",41.892,-87.6894,6,29,0,0,6,29,35,35,0
"583",644,"Western Ave & Fillmore St (*)",41.8686,-87.6862,34,50,0,0,34,50,84,84,0
"584",645,"Archer (Damen) Ave & 37th St",41.8267,-87.6831,33,31,0,0,33,31,64,64,0
"585",646,"State St & 54th St",41.7966,-87.6259,4,4,0,0,4,4,8,8,0
"586",647,"Elizabeth St & 59th St",41.7867,-87.6559,0,0,0,0,0,0,0,0,0
"587",648,"Carpenter St & 63rd St",41.7799,-87.6509,2,2,0,0,2,2,4,4,0
"588",649,"Stewart Ave & 63rd St (*)",41.7798,-87.6348,1,0,0,0,1,0,0,0,0
"589",650,"Eggleston Ave & 69th St (*)",41.7689,-87.6359,3,4,0,0,3,4,7,7,0
"590",651,"Michigan Ave & 71st St",41.7653,-87.6217,1,1,0,0,1,1,2,2,0
"591",652,"Rhodes Ave & 71st St",41.766,-87.6117,0,0,0,0,0,0,0,0,0
"592",653,"Cornell Dr & Hayes Dr",41.7806,-87.5848,20,17,0,0,20,17,37,37,0
"593",654,"Racine Ave & Washington Blvd (*)",41.8831,-87.657,15,35,0,0,15,35,50,50,0
"594",655,"Hoyne Ave & Balmoral Ave",41.9799,-87.6819,18,31,0,0,18,31,49,49,0
"595",656,"Damen Ave & Walnut (Lake) St (*)",41.886,-87.677,6,22,0,0,6,22,28,28,0
"596",657,"Wood St & Augusta Blvd",41.8992,-87.6722,282,246,0,0,282,246,528,528,0
"597",658,"Leavitt St & Division St (*)",41.903,-87.6838,45,77,0,0,45,77,122,122,0
"598",659,"Leavitt St & Chicago Ave",41.8955,-87.682,119,111,0,0,119,111,230,230,0
"599",660,"Sheridan Rd & Columbia Ave",42.0046,-87.6614,89,89,0,0,89,89,178,178,0
"600",661,"Evanston Civic Center",42.057,-87.6866,21,25,0,0,21,25,46,46,0
"601",662,"Dodge Ave & Mulford St",42.0235,-87.6996,47,47,0,0,47,47,94,94,0
"602",663,"Lincolnwood Dr & Central St",42.0649,-87.7153,34,34,0,0,34,34,68,68,0
"603",664,"Leavitt St & Belmont Ave (*)",41.9394,-87.6833,29,51,0,0,29,51,80,80,0
"604",666,"Cherry Ave & Blackhawk St",41.9072,-87.6556,37,31,0,0,37,31,68,68,0
"605",671,"HUBBARD ST BIKE CHECKING (LBS-WH-TEST)",41.89,-87.6807,15,28,0,0,15,28,43,43,0
"606",672,"Franklin St & Illinois St",41.891,-87.6355,277,259,0,0,277,259,536,536,0
"607",673,"Lincoln Park Conservatory",41.9239,-87.6358,287,294,0,0,287,294,581,581,0
"608",0,"",0,0,0,0,0,0,0,0,0,0,0
