"","station_id","station_name","lat","long","start_n","end_n","e_start_n","e_end_n","c_start_n","c_end_n","total","classic","electric"
"1",2,"Buckingham Fountain",41.8765,-87.6205,69,55,0,0,69,55,124,124,0
"2",3,"Shedd Aquarium",41.8672,-87.6154,324,289,0,0,324,289,613,613,0
"3",4,"Burnham Harbor",41.8563,-87.6133,171,164,0,0,171,164,335,335,0
"4",5,"State St & Harrison St",41.8741,-87.6277,273,280,0,0,273,280,553,553,0
"5",6,"Dusable Harbor",41.887,-87.6128,157,140,0,0,157,140,297,297,0
"6",7,"Field Blvd & South Water St",41.8863,-87.6175,286,295,0,0,286,295,581,581,0
"7",9,"Leavitt St & Archer Ave",41.8288,-87.6806,12,12,0,0,12,12,24,24,0
"8",11,"Jeffery Blvd & 71st St",41.7666,-87.5764,16,15,0,0,16,15,31,31,0
"9",12,"South Shore Dr & 71st St",41.7664,-87.5657,39,37,0,0,39,37,76,76,0
"10",13,"Wilton Ave & Diversey Pkwy",41.9324,-87.6527,566,571,0,0,566,571,1137,1137,0
"11",14,"Morgan St & 18th St",41.8581,-87.6511,238,248,0,0,238,248,486,486,0
"12",15,"Racine Ave & 18th St",41.8582,-87.6565,215,219,0,0,215,219,434,434,0
"13",16,"Paulina Ave & North Ave",41.9103,-87.6701,177,179,0,0,177,179,356,356,0
"14",17,"Honore St & Division St",41.9031,-87.6739,323,278,0,0,323,278,601,601,0
"15",18,"Wacker Dr & Washington St",41.8831,-87.6373,898,856,0,0,898,856,1754,1754,0
"16",19,"Throop (Loomis) St & Taylor St",41.869,-87.6591,216,201,0,0,216,201,417,417,0
"17",20,"Sheffield Ave & Kingsbury St",41.9105,-87.6531,435,509,0,0,435,509,944,944,0
"18",21,"Aberdeen St & Jackson Blvd",41.8777,-87.6548,519,519,0,0,519,519,1038,1038,0
"19",22,"May St & Taylor St",41.8695,-87.6555,240,248,0,0,240,248,488,488,0
"20",23,"Orleans St & Elm St",41.9029,-87.6377,169,166,0,0,169,166,335,335,0
"21",24,"Fairbanks Ct & Grand Ave",41.8918,-87.6206,727,746,0,0,727,746,1473,1473,0
"22",25,"Michigan Ave & Pearson St",41.8977,-87.6235,275,297,0,0,275,297,572,572,0
"23",26,"McClurg Ct & Illinois St",41.8904,-87.6175,700,693,0,0,700,693,1393,1393,0
"24",27,"Larrabee St & North Ave",41.9102,-87.6435,139,138,0,0,139,138,277,277,0
"25",28,"Larrabee St & Menomonee St",41.9147,-87.6433,170,171,0,0,170,171,341,341,0
"26",29,"Noble St & Milwaukee Ave",41.9007,-87.6626,251,232,0,0,251,232,483,483,0
"27",30,"Ashland Ave & Augusta Blvd",41.8996,-87.6677,231,210,0,0,231,210,441,441,0
"28",31,"Franklin St & Chicago Ave",41.8967,-87.6357,645,595,0,0,645,595,1240,1240,0
"29",32,"Racine Ave & Congress Pkwy",41.8746,-87.657,280,276,0,0,280,276,556,556,0
"30",33,"State St & Van Buren St",41.8772,-87.6278,485,454,0,0,485,454,939,939,0
"31",34,"Cannon Dr & Fullerton Ave",41.9268,-87.6344,42,39,0,0,42,39,81,81,0
"32",35,"Streeter Dr & Grand Ave",41.8923,-87.612,400,459,0,0,400,459,859,859,0
"33",36,"Franklin St & Jackson Blvd",41.8777,-87.6353,1131,1046,0,0,1131,1046,2177,2177,0
"34",37,"Dearborn St & Adams St",41.8794,-87.6298,666,631,0,0,666,631,1297,1297,0
"35",38,"Clark St & Lake St",41.886,-87.6309,769,735,0,0,769,735,1504,1504,0
"36",39,"Wabash Ave & Adams St",41.8795,-87.6257,572,589,0,0,572,589,1161,1161,0
"37",40,"LaSalle St & Adams St",41.8793,-87.632,396,392,0,0,396,392,788,788,0
"38",41,"Federal St & Polk St",41.8721,-87.6295,586,569,0,0,586,569,1155,1155,0
"39",42,"Wabash Ave & Cermak Rd",41.8526,-87.6265,90,99,0,0,90,99,189,189,0
"40",43,"Michigan Ave & Washington St",41.884,-87.6247,1400,1684,0,0,1400,1684,3084,3084,0
"41",44,"State St & Randolph St",41.8847,-87.6277,831,816,0,0,831,816,1647,1647,0
"42",45,"Michigan Ave & Ida B Wells Dr",41.8762,-87.6244,233,185,0,0,233,185,418,418,0
"43",46,"Wells St & Walton St",41.8999,-87.6344,245,224,0,0,245,224,469,469,0
"44",47,"State St & Kinzie St",41.8892,-87.6278,806,1012,0,0,806,1012,1818,1818,0
"45",48,"Larrabee St & Kingsbury St",41.8978,-87.6429,1435,1334,0,0,1435,1334,2769,2769,0
"46",49,"Dearborn St & Monroe St",41.8813,-87.6295,1212,1271,0,0,1212,1271,2483,2483,0
"47",50,"Clark St & Ida B Wells Dr",41.8759,-87.6306,672,678,0,0,672,678,1350,1350,0
"48",51,"Clark St & Randolph St",41.8846,-87.6319,888,873,0,0,888,873,1761,1761,0
"49",52,"Michigan Ave & Lake St",41.886,-87.6241,1185,1216,0,0,1185,1216,2401,2401,0
"50",53,"Wells St & Huron St",41.8947,-87.6344,1114,1027,0,0,1114,1027,2141,2141,0
"51",54,"Ogden Ave & Chicago Ave",41.8964,-87.6541,382,403,0,0,382,403,785,785,0
"52",55,"Halsted St & Roosevelt Rd",41.8673,-87.6486,305,366,0,0,305,366,671,671,0
"53",56,"Desplaines St & Kinzie St",41.8887,-87.6444,1035,911,0,0,1035,911,1946,1946,0
"54",57,"Clinton St & Roosevelt Rd",41.8671,-87.6411,220,254,0,0,220,254,474,474,0
"55",58,"Marshfield Ave & Cortland St",41.916,-87.6689,750,746,0,0,750,746,1496,1496,0
"56",59,"Wabash Ave & Roosevelt Rd",41.8672,-87.626,869,965,0,0,869,965,1834,1834,0
"57",60,"Dayton St & North Ave",41.9106,-87.6494,337,370,0,0,337,370,707,707,0
"58",61,"Wood St & Milwaukee Ave",41.9077,-87.6726,348,367,0,0,348,367,715,715,0
"59",62,"McCormick Place",41.8514,-87.6188,83,81,0,0,83,81,164,164,0
"60",66,"Clinton St & Lake St",41.8856,-87.6418,1373,1377,0,0,1373,1377,2750,2750,0
"61",67,"Sheffield Ave & Fullerton Ave",41.9256,-87.6537,727,715,0,0,727,715,1442,1442,0
"62",68,"Clinton St & Tilden St",41.8759,-87.6408,429,444,0,0,429,444,873,873,0
"63",69,"Damen Ave & Pierce Ave",41.9094,-87.6777,758,736,0,0,758,736,1494,1494,0
"64",71,"Morgan St & Lake St",41.8855,-87.6523,999,1079,0,0,999,1079,2078,2078,0
"65",72,"Wabash Ave & 16th St",41.8604,-87.6258,425,449,0,0,425,449,874,874,0
"66",73,"Jefferson St & Monroe St",41.8804,-87.6427,445,421,0,0,445,421,866,866,0
"67",74,"Kingsbury St & Erie St",41.8938,-87.6417,880,798,0,0,880,798,1678,1678,0
"68",75,"Canal St & Jackson Blvd",41.8772,-87.6394,520,560,0,0,520,560,1080,1080,0
"69",76,"Lake Shore Dr & Monroe St",41.881,-87.6167,342,276,0,0,342,276,618,618,0
"70",77,"Clinton St & Madison St",41.8822,-87.6411,2873,2904,0,0,2873,2904,5777,5777,0
"71",80,"Aberdeen St & Monroe St",41.8804,-87.6555,520,510,0,0,520,510,1030,1030,0
"72",81,"Daley Center Plaza",41.8842,-87.6296,1338,1304,0,0,1338,1304,2642,2642,0
"73",84,"Milwaukee Ave & Grand Ave",41.8916,-87.6484,668,621,0,0,668,621,1289,1289,0
"74",85,"Michigan Ave & Oak St",41.901,-87.6238,324,357,0,0,324,357,681,681,0
"75",86,"Eckhart Park",41.8964,-87.661,165,157,0,0,165,157,322,322,0
"76",87,"Racine Ave & Fullerton Ave",41.9256,-87.6584,334,327,0,0,334,327,661,661,0
"77",88,"Racine Ave & Randolph St",41.8841,-87.6569,240,248,0,0,240,248,488,488,0
"78",89,"Financial Pl & Ida B Wells Dr",41.875,-87.6331,447,427,0,0,447,427,874,874,0
"79",90,"Millennium Park",41.881,-87.6241,587,694,0,0,587,694,1281,1281,0
"80",91,"Clinton St & Washington Blvd",41.8834,-87.6412,2427,2875,0,0,2427,2875,5302,5302,0
"81",92,"Carpenter St & Huron St",41.8946,-87.6534,293,299,0,0,293,299,592,592,0
"82",93,"Sheffield Ave & Willow St",41.9137,-87.6529,304,323,0,0,304,323,627,627,0
"83",94,"Clark St & Armitage Ave",41.9183,-87.6363,523,489,0,0,523,489,1012,1012,0
"84",95,"Stony Island Ave & 64th St",41.7789,-87.5866,3,1,0,0,3,1,4,4,0
"85",96,"Desplaines St & Randolph St",41.8846,-87.6446,500,450,0,0,500,450,950,950,0
"86",97,"Field Museum",41.8653,-87.6179,139,144,0,0,139,144,283,283,0
"87",98,"LaSalle St & Washington St",41.8827,-87.6325,640,665,0,0,640,665,1305,1305,0
"88",99,"Lake Shore Dr & Ohio St",41.8926,-87.6145,331,317,0,0,331,317,648,648,0
"89",100,"Orleans St & Merchandise Mart Plaza",41.8882,-87.6364,1061,925,0,0,1061,925,1986,1986,0
"90",101,"63rd St Beach",41.781,-87.5761,19,23,0,0,19,23,42,42,0
"91",102,"Stony Island Ave & 67th St",41.7735,-87.5853,9,7,0,0,9,7,16,16,0
"92",103,"Clinton St & Polk St",41.8715,-87.6409,61,68,0,0,61,68,129,129,0
"93",106,"State St & Pearson St",41.8974,-87.6287,387,402,0,0,387,402,789,789,0
"94",107,"Desplaines St & Jackson Blvd",41.8783,-87.6439,795,764,0,0,795,764,1559,1559,0
"95",108,"Halsted St & Polk St",41.8718,-87.6466,408,416,0,0,408,416,824,824,0
"96",109,"900 W Harrison St",41.8748,-87.6498,386,354,0,0,386,354,740,740,0
"97",110,"Dearborn St & Erie St",41.894,-87.6293,1164,1179,0,0,1164,1179,2343,2343,0
"98",111,"Sedgwick St & Huron St",41.8947,-87.6384,738,735,0,0,738,735,1473,1473,0
"99",112,"Green St & Randolph St",41.8837,-87.6487,446,526,0,0,446,526,972,972,0
"100",113,"Bissell St & Armitage Ave",41.9184,-87.6522,522,526,0,0,522,526,1048,1048,0
"101",114,"Sheffield Ave & Waveland Ave",41.9494,-87.6545,280,293,0,0,280,293,573,573,0
"102",115,"Sheffield Ave & Wellington Ave",41.9363,-87.6527,417,426,0,0,417,426,843,843,0
"103",116,"Western Ave & Winnebago Ave",41.9155,-87.687,357,350,0,0,357,350,707,707,0
"104",117,"Wilton Ave & Belmont Ave",41.9402,-87.653,580,548,0,0,580,548,1128,1128,0
"105",118,"Sedgwick St & North Ave",41.9114,-87.6387,509,432,0,0,509,432,941,941,0
"106",119,"Ashland Ave & Lake St",41.8859,-87.6672,277,216,0,0,277,216,493,493,0
"107",120,"Wentworth Ave & Cermak Rd (Temp)",41.853,-87.6306,128,131,0,0,128,131,259,259,0
"108",121,"Blackstone Ave & Hyde Park Blvd",41.8026,-87.5904,122,102,0,0,122,102,224,224,0
"109",122,"Ogden Ave & Congress Pkwy",41.875,-87.6733,66,65,0,0,66,65,131,131,0
"110",123,"California Ave & Milwaukee Ave",41.9227,-87.6972,296,279,0,0,296,279,575,575,0
"111",124,"Damen Ave & Cullerton St",41.855,-87.6757,75,75,0,0,75,75,150,150,0
"112",125,"Rush St & Hubbard St",41.8902,-87.6262,649,648,0,0,649,648,1297,1297,0
"113",126,"Clark St & North Ave",41.912,-87.6319,148,153,0,0,148,153,301,301,0
"114",127,"Lincoln Ave & Fullerton Ave",41.9259,-87.6493,469,500,0,0,469,500,969,969,0
"115",128,"Damen Ave & Chicago Ave",41.8958,-87.6772,378,397,0,0,378,397,775,775,0
"116",129,"Blue Island Ave & 18th St",41.8576,-87.6615,249,269,0,0,249,269,518,518,0
"117",130,"Damen Ave & Division St",41.9033,-87.6784,356,336,0,0,356,336,692,692,0
"118",131,"Lincoln Ave & Belmont Ave",41.9394,-87.6684,242,259,0,0,242,259,501,501,0
"119",132,"Wentworth Ave & 24th St (Temp)",41.8501,-87.6321,48,60,0,0,48,60,108,108,0
"120",133,"Kingsbury St & Kinzie St",41.8892,-87.6385,1896,1887,0,0,1896,1887,3783,3783,0
"121",134,"Peoria St & Jackson Blvd",41.8776,-87.6496,689,658,0,0,689,658,1347,1347,0
"122",135,"Halsted St & 21st St",41.8538,-87.6466,48,55,0,0,48,55,103,103,0
"123",136,"Racine Ave & 13th St",41.8651,-87.657,64,70,0,0,64,70,134,134,0
"124",137,"Morgan Ave & 14th Pl",41.8624,-87.6511,140,146,0,0,140,146,286,286,0
"125",138,"Clybourn Ave & Division St",41.9046,-87.6406,287,264,0,0,287,264,551,551,0
"126",140,"Dearborn Pkwy & Delaware Pl",41.899,-87.6299,616,660,0,0,616,660,1276,1276,0
"127",141,"Clark St & Lincoln Ave",41.9157,-87.6346,406,403,0,0,406,403,809,809,0
"128",142,"McClurg Ct & Erie St",41.8945,-87.6179,664,646,0,0,664,646,1310,1310,0
"129",143,"Sedgwick St & Webster Ave",41.9222,-87.6389,353,347,0,0,353,347,700,700,0
"130",144,"Larrabee St & Webster Ave",41.9218,-87.6441,409,425,0,0,409,425,834,834,0
"131",145,"Mies van der Rohe Way & Chestnut St",41.8986,-87.6219,455,407,0,0,455,407,862,862,0
"132",146,"Loomis St & Jackson Blvd",41.8779,-87.662,199,235,0,0,199,235,434,434,0
"133",147,"Indiana Ave & 26th St",41.8457,-87.6225,115,102,0,0,115,102,217,217,0
"134",148,"State St & 33rd St",41.8347,-87.6258,170,186,0,0,170,186,356,356,0
"135",149,"Calumet Ave & 33rd St",41.8349,-87.6179,94,90,0,0,94,90,184,184,0
"136",150,"Fort Dearborn Dr & 31st St",41.8386,-87.6082,49,37,0,0,49,37,86,86,0
"137",152,"Lincoln Ave & Diversey Pkwy",41.9322,-87.6586,268,257,0,0,268,257,525,525,0
"138",153,"Southport Ave & Wellington Ave",41.9357,-87.6636,425,427,0,0,425,427,852,852,0
"139",154,"Southport Ave & Belmont Ave",41.9395,-87.6638,188,222,0,0,188,222,410,410,0
"140",156,"Clark St & Wellington Ave",41.9365,-87.6475,356,404,0,0,356,404,760,760,0
"141",157,"Lake Shore Dr & Wellington Ave",41.9367,-87.6368,228,235,0,0,228,235,463,463,0
"142",158,"Milwaukee Ave & Wabansia Ave",41.9126,-87.6814,346,364,0,0,346,364,710,710,0
"143",159,"Claremont Ave & Hirsch St",41.9078,-87.6859,208,186,0,0,208,186,394,394,0
"144",160,"Campbell Ave & North Ave",41.9105,-87.6896,144,172,0,0,144,172,316,316,0
"145",161,"Rush St & Superior St",41.8958,-87.6259,603,580,0,0,603,580,1183,1183,0
"146",162,"Damen Ave & Wellington Ave",41.9359,-87.6784,85,70,0,0,85,70,155,155,0
"147",163,"Damen Ave & Clybourn Ave",41.9319,-87.6779,137,149,0,0,137,149,286,286,0
"148",164,"Franklin St & Lake St",41.8858,-87.6355,847,858,0,0,847,858,1705,1705,0
"149",165,"Clark St & Grace St",41.9508,-87.6592,341,337,0,0,341,337,678,678,0
"150",166,"Ashland Ave & Wrightwood Ave",41.9288,-87.6685,182,204,0,0,182,204,386,386,0
"151",167,"Damen Ave & Coulter St",41.8492,-87.6756,8,6,0,0,8,6,14,14,0
"152",168,"Michigan Ave & 14th St",41.8641,-87.6237,379,412,0,0,379,412,791,791,0
"153",169,"Canal St & Harrison St",41.8743,-87.6396,195,183,0,0,195,183,378,378,0
"154",170,"Clinton St & 18th St",41.858,-87.6408,107,109,0,0,107,109,216,216,0
"155",171,"May St & Cullerton St",41.8551,-87.6541,66,75,0,0,66,75,141,141,0
"156",172,"Rush St & Cedar St",41.9023,-87.6277,335,326,0,0,335,326,661,661,0
"157",173,"Mies van der Rohe Way & Chicago Ave",41.8969,-87.6217,463,467,0,0,463,467,930,930,0
"158",174,"Canal St & Madison St",41.8821,-87.6398,1512,1518,0,0,1512,1518,3030,3030,0
"159",175,"Wells St & Polk St",41.8726,-87.6335,473,410,0,0,473,410,883,883,0
"160",176,"Clark St & Elm St",41.903,-87.6313,974,1017,0,0,974,1017,1991,1991,0
"161",177,"Theater on the Lake",41.9263,-87.6308,166,175,0,0,166,175,341,341,0
"162",178,"State St & 19th St",41.8566,-87.6275,73,71,0,0,73,71,144,144,0
"163",179,"MLK Jr Dr & Pershing Rd",41.8246,-87.6168,47,49,0,0,47,49,96,96,0
"164",180,"Ritchie Ct & Banks St",41.9069,-87.6262,296,300,0,0,296,300,596,596,0
"165",181,"LaSalle St & Illinois St",41.8908,-87.6317,756,728,0,0,756,728,1484,1484,0
"166",182,"Wells St & Elm St",41.9032,-87.6343,610,573,0,0,610,573,1183,1183,0
"167",183,"Damen Ave & Thomas St (Augusta Blvd)",41.9013,-87.6774,210,190,0,0,210,190,400,400,0
"168",184,"State St & 35th St",41.8309,-87.628,106,98,0,0,106,98,204,204,0
"169",185,"Stave St & Armitage Ave",41.9177,-87.6914,93,92,0,0,93,92,185,185,0
"170",186,"Ogden Ave & Race Ave",41.8918,-87.6588,346,344,0,0,346,344,690,690,0
"171",188,"Greenview Ave & Fullerton Ave",41.9253,-87.6658,195,219,0,0,195,219,414,414,0
"172",190,"Southport Ave & Wrightwood Ave",41.9288,-87.6639,229,243,0,0,229,243,472,472,0
"173",191,"Canal St & Monroe St",41.8817,-87.6395,988,830,0,0,988,830,1818,1818,0
"174",192,"Canal St & Adams St",41.8793,-87.6399,3241,3377,0,0,3241,3377,6618,6618,0
"175",193,"State St & 29th St",41.8417,-87.6269,22,18,0,0,22,18,40,40,0
"176",194,"Wabash Ave & Wacker Pl",41.8869,-87.626,494,518,0,0,494,518,1012,1012,0
"177",195,"Columbus Dr & Randolph St",41.8847,-87.6195,1661,1036,0,0,1661,1036,2697,2697,0
"178",196,"Cityfront Plaza Dr & Pioneer Ct",41.8906,-87.6221,657,648,0,0,657,648,1305,1305,0
"179",197,"Michigan Ave & Madison St",41.8821,-87.6251,473,484,0,0,473,484,957,957,0
"180",198,"Green St & Madison St",41.8819,-87.6488,566,635,0,0,566,635,1201,1201,0
"181",199,"Wabash Ave & Grand Ave",41.8915,-87.6268,974,919,0,0,974,919,1893,1893,0
"182",200,"MLK Jr Dr & 47th St",41.8099,-87.6163,7,9,0,0,7,9,16,16,0
"183",201,"Indiana Ave & 40th St",41.8217,-87.6216,10,10,0,0,10,10,20,20,0
"184",202,"Halsted St & 18th St",41.8575,-87.6463,95,88,0,0,95,88,183,183,0
"185",203,"Western Ave & 21st St",41.8541,-87.6858,41,54,0,0,41,54,95,95,0
"186",204,"Prairie Ave & Garfield Blvd",41.7949,-87.6187,57,51,0,0,57,51,108,108,0
"187",205,"Paulina St & 18th St",41.8579,-87.6687,163,162,0,0,163,162,325,325,0
"188",206,"Halsted St & Archer Ave",41.8472,-87.6468,118,100,0,0,118,100,218,218,0
"189",207,"Emerald Ave & 28th St",41.8436,-87.6454,94,93,0,0,94,93,187,187,0
"190",208,"Laflin St & Cullerton St",41.8549,-87.6636,73,86,0,0,73,86,159,159,0
"191",209,"Normal Ave & Archer Ave",41.8495,-87.6406,61,81,0,0,61,81,142,142,0
"192",210,"Ashland Ave & Division St",41.9035,-87.6677,784,753,0,0,784,753,1537,1537,0
"193",211,"St. Clair St & Erie St",41.8944,-87.6227,987,1296,0,0,987,1296,2283,2283,0
"194",212,"Wells St & Hubbard St",41.8899,-87.6343,1015,1024,0,0,1015,1024,2039,2039,0
"195",213,"Leavitt St & North Ave",41.9102,-87.6823,166,158,0,0,166,158,324,324,0
"196",214,"Damen Ave & Grand Ave",41.8912,-87.6769,202,219,0,0,202,219,421,421,0
"197",215,"Damen Ave & Madison St",41.8814,-87.6749,86,81,0,0,86,81,167,167,0
"198",216,"California Ave & Division St",41.903,-87.6975,46,32,0,0,46,32,78,78,0
"199",217,"Elizabeth (May) St & Fulton St",41.8866,-87.658,302,273,0,0,302,273,575,575,0
"200",218,"Wells St & 19th St",41.8568,-87.6339,60,61,0,0,60,61,121,121,0
"201",219,"Damen Ave & Cortland St",41.916,-87.6773,297,273,0,0,297,273,570,570,0
"202",220,"Clark St & Drummond Pl",41.9312,-87.6443,387,397,0,0,387,397,784,784,0
"203",222,"Milwaukee Ave & Rockwell St",41.9202,-87.693,111,134,0,0,111,134,245,245,0
"204",223,"Clifton Ave & Armitage Ave",41.9182,-87.6569,282,261,0,0,282,261,543,543,0
"205",224,"Halsted St & Willow St",41.9139,-87.6488,188,176,0,0,188,176,364,364,0
"206",225,"Halsted St & Dickens Ave",41.9199,-87.6488,343,359,0,0,343,359,702,702,0
"207",226,"Racine Ave & Belmont Ave",41.9397,-87.6589,186,207,0,0,186,207,393,393,0
"208",227,"Southport Ave & Waveland Ave",41.9482,-87.6639,418,400,0,0,418,400,818,818,0
"209",228,"Damen Ave & Melrose Ave",41.9406,-87.6785,69,75,0,0,69,75,144,144,0
"210",229,"Southport Ave & Roscoe St",41.9437,-87.664,421,440,0,0,421,440,861,861,0
"211",230,"Lincoln Ave & Roscoe St",41.9433,-87.671,325,369,0,0,325,369,694,694,0
"212",231,"Sheridan Rd & Montrose Ave",41.9617,-87.6546,254,252,0,0,254,252,506,506,0
"213",232,"Pine Grove Ave & Waveland Ave",41.9493,-87.6463,354,342,0,0,354,342,696,696,0
"214",233,"Sangamon St & Washington Blvd",41.8832,-87.6511,313,322,0,0,313,322,635,635,0
"215",234,"Clark St & Montrose Ave",41.9616,-87.666,154,99,0,0,154,99,253,253,0
"216",236,"Sedgwick St & Schiller St",41.9076,-87.6386,136,104,0,0,136,104,240,240,0
"217",237,"MLK Jr Dr & 29th St",41.8421,-87.617,154,152,0,0,154,152,306,306,0
"218",238,"Wolcott (Ravenswood) Ave & Montrose Ave",41.9614,-87.6762,131,151,0,0,131,151,282,282,0
"219",239,"Western Ave & Leland Ave",41.9665,-87.6884,230,222,0,0,230,222,452,452,0
"220",240,"Sheridan Rd & Irving Park Rd",41.9542,-87.6544,647,638,0,0,647,638,1285,1285,0
"221",241,"Morgan St & Polk St",41.8717,-87.651,553,543,0,0,553,543,1096,1096,0
"222",242,"Damen Ave & Leland Ave",41.9671,-87.679,298,278,0,0,298,278,576,576,0
"223",243,"Lincoln Ave & Sunnyside Ave",41.963,-87.6848,201,203,0,0,201,203,404,404,0
"224",244,"Ravenswood Ave & Irving Park Rd",41.9547,-87.6739,165,176,0,0,165,176,341,341,0
"225",245,"Clarendon Ave & Junior Ter",41.961,-87.6496,175,168,0,0,175,168,343,343,0
"226",246,"Ashland Ave & Belle Plaine Ave",41.9561,-87.6688,90,98,0,0,90,98,188,188,0
"227",247,"Shore Dr & 55th St",41.7952,-87.5807,157,152,0,0,157,152,309,309,0
"228",248,"Woodlawn Ave & 55th St",41.7953,-87.5965,262,253,0,0,262,253,515,515,0
"229",249,"Montrose Harbor",41.964,-87.6382,44,37,0,0,44,37,81,81,0
"230",250,"Ashland Ave & Wellington Ave",41.9361,-87.6698,114,119,0,0,114,119,233,233,0
"231",251,"Clarendon Ave & Leland Ave",41.968,-87.65,112,122,0,0,112,122,234,234,0
"232",252,"Greenwood Ave & 47th St",41.8098,-87.5994,76,73,0,0,76,73,149,149,0
"233",253,"Winthrop Ave & Lawrence Ave",41.9688,-87.6577,122,126,0,0,122,126,248,248,0
"234",254,"Pine Grove Ave & Irving Park Rd",41.9544,-87.648,302,267,0,0,302,267,569,569,0
"235",255,"Indiana Ave & Roosevelt Rd",41.8679,-87.623,705,639,0,0,705,639,1344,1344,0
"236",256,"Broadway & Sheridan Rd",41.9528,-87.65,347,350,0,0,347,350,697,697,0
"237",257,"Lincoln Ave & Waveland Ave",41.9488,-87.6753,156,181,0,0,156,181,337,337,0
"238",258,"Logan Blvd & Elston Ave",41.9295,-87.6842,120,141,0,0,120,141,261,261,0
"239",259,"California Ave & Francis Pl (Temp)",41.9185,-87.6974,93,90,0,0,93,90,183,183,0
"240",260,"Kedzie Ave & Milwaukee Ave",41.9296,-87.7079,301,312,0,0,301,312,613,613,0
"241",261,"Hermitage Ave & Polk St",41.8715,-87.6699,204,196,0,0,204,196,400,400,0
"242",262,"Halsted St & 37th St",41.8271,-87.6457,15,19,0,0,15,19,34,34,0
"243",263,"Rhodes Ave & 32nd St",41.8362,-87.6135,30,21,0,0,30,21,51,51,0
"244",264,"Stetson Ave & South Water St",41.8868,-87.6223,596,416,0,0,596,416,1012,1012,0
"245",265,"Cottage Grove Ave & Oakwood Blvd",41.823,-87.6071,18,28,0,0,18,28,46,46,0
"246",267,"Lake Park Ave & 47th St",41.8094,-87.5919,50,65,0,0,50,65,115,115,0
"247",268,"Lake Shore Dr & North Blvd",41.9117,-87.6268,170,169,0,0,170,169,339,339,0
"248",270,"Stony Island Ave & 75th St",41.7587,-87.5869,6,6,0,0,6,6,12,12,0
"249",271,"Cottage Grove Ave & 43rd St",41.8165,-87.6066,24,24,0,0,24,24,48,48,0
"250",272,"Indiana Ave & 31st St",41.8388,-87.6219,76,74,0,0,76,74,150,150,0
"251",273,"Michigan Ave & 18th St",41.8578,-87.6246,408,416,0,0,408,416,824,824,0
"252",274,"Racine Ave & 15th St",41.8613,-87.6566,51,52,0,0,51,52,103,103,0
"253",275,"Ashland Ave & 13th St",41.8652,-87.6665,121,121,0,0,121,121,242,242,0
"254",276,"California Ave & North Ave",41.9104,-87.6972,93,105,0,0,93,105,198,198,0
"255",277,"Ashland Ave & Grand Ave",41.8911,-87.6666,180,171,0,0,180,171,351,351,0
"256",278,"Wallace St & 35th St",41.8306,-87.6413,51,54,0,0,51,54,105,105,0
"257",279,"Halsted St & 35th St",41.8307,-87.6472,46,50,0,0,46,50,96,96,0
"258",280,"Morgan St & 31st St",41.8378,-87.6511,59,69,0,0,59,69,128,128,0
"259",281,"Western Ave & 24th St",41.8485,-87.6851,14,13,0,0,14,13,27,27,0
"260",282,"Halsted St & Maxwell St",41.8649,-87.6471,218,216,0,0,218,216,434,434,0
"261",283,"LaSalle St & Jackson Blvd",41.8782,-87.6319,1320,1249,0,0,1320,1249,2569,2569,0
"262",284,"Michigan Ave & Jackson Blvd",41.8779,-87.6241,467,484,0,0,467,484,951,951,0
"263",285,"Wood St & Hubbard St",41.8899,-87.6715,172,184,0,0,172,184,356,356,0
"264",286,"Franklin St & Adams St (Temp)",41.8794,-87.6355,546,532,0,0,546,532,1078,1078,0
"265",287,"Franklin St & Monroe St",41.8803,-87.6352,1454,1367,0,0,1454,1367,2821,2821,0
"266",288,"Larrabee St & Armitage Ave",41.9181,-87.6437,233,227,0,0,233,227,460,460,0
"267",289,"Wells St & Concord Ln",41.9121,-87.6347,762,746,0,0,762,746,1508,1508,0
"268",290,"Kedzie Ave & Palmer Ct",41.9215,-87.7073,183,162,0,0,183,162,345,345,0
"269",291,"Wells St & Evergreen Ave",41.9067,-87.6348,428,366,0,0,428,366,794,794,0
"270",292,"Southport Ave & Clark St",41.9571,-87.6642,141,143,0,0,141,143,284,284,0
"271",293,"Broadway & Wilson Ave",41.9652,-87.6581,257,337,0,0,257,337,594,594,0
"272",294,"Broadway & Berwyn Ave",41.9784,-87.6598,206,228,0,0,206,228,434,434,0
"273",295,"Broadway & Argyle St",41.9738,-87.6597,190,194,0,0,190,194,384,384,0
"274",296,"Broadway & Belmont Ave",41.9401,-87.6455,304,291,0,0,304,291,595,595,0
"275",297,"Paulina St & Montrose Ave",41.9615,-87.6714,82,82,0,0,82,82,164,164,0
"276",298,"Lincoln Ave & Belle Plaine Ave",41.956,-87.6803,154,172,0,0,154,172,326,326,0
"277",299,"Halsted St & Roscoe St",41.9437,-87.649,275,282,0,0,275,282,557,557,0
"278",300,"Broadway & Barry Ave",41.9377,-87.6441,561,643,0,0,561,643,1204,1204,0
"279",301,"Clark St & Schiller St",41.908,-87.6315,452,426,0,0,452,426,878,878,0
"280",302,"Sheffield Ave & Wrightwood Ave",41.9287,-87.6538,227,189,0,0,227,189,416,416,0
"281",303,"Broadway & Cornelia Ave",41.9455,-87.6464,337,331,0,0,337,331,668,668,0
"282",304,"Broadway & Waveland Ave",41.9491,-87.6486,458,462,0,0,458,462,920,920,0
"283",305,"Western Ave & Division St",41.9029,-87.6873,228,228,0,0,228,228,456,456,0
"284",306,"Sheridan Rd & Buena Ave",41.9585,-87.655,184,172,0,0,184,172,356,356,0
"285",307,"Southport Ave & Clybourn Ave",41.9208,-87.6637,308,346,0,0,308,346,654,654,0
"286",308,"Seeley Ave & Roscoe St",41.9434,-87.6796,140,141,0,0,140,141,281,281,0
"287",309,"Leavitt St & Armitage Ave",41.9178,-87.6824,151,155,0,0,151,155,306,306,0
"288",310,"Damen Ave & Charleston St",41.9201,-87.6779,146,130,0,0,146,130,276,276,0
"289",311,"Leavitt St & Lawrence Ave",41.9689,-87.684,90,79,0,0,90,79,169,169,0
"290",312,"Clarendon Ave & Gordon Ter",41.9579,-87.6495,287,288,0,0,287,288,575,575,0
"291",313,"Lakeview Ave & Fullerton Pkwy",41.9259,-87.639,321,314,0,0,321,314,635,635,0
"292",314,"Ravenswood Ave & Berteau Ave",41.9579,-87.6736,95,90,0,0,95,90,185,185,0
"293",315,"Elston Ave & Wabansia Ave",41.9129,-87.6642,105,120,0,0,105,120,225,225,0
"294",316,"Damen Ave & Sunnyside Ave",41.9633,-87.6793,89,88,0,0,89,88,177,177,0
"295",317,"Wood St & Taylor St",41.8692,-87.671,307,290,0,0,307,290,597,597,0
"296",318,"Southport Ave & Irving Park Rd",41.9542,-87.6644,249,233,0,0,249,233,482,482,0
"297",319,"Greenview Ave & Diversey Pkwy",41.9326,-87.6659,155,137,0,0,155,137,292,292,0
"298",320,"Loomis St & Lexington St",41.8722,-87.6615,464,425,0,0,464,425,889,889,0
"299",321,"Wabash Ave & 9th St",41.8708,-87.6257,544,528,0,0,544,528,1072,1072,0
"300",322,"Kimbark Ave & 53rd St",41.7996,-87.5947,456,494,0,0,456,494,950,950,0
"301",323,"Sheridan Rd & Lawrence Ave",41.9695,-87.6547,109,89,0,0,109,89,198,198,0
"302",324,"Stockton Dr & Wrightwood Ave",41.9313,-87.6387,222,239,0,0,222,239,461,461,0
"303",325,"Clark St & Winnemac Ave",41.9733,-87.6678,392,368,0,0,392,368,760,760,0
"304",326,"Clark St & Leland Ave",41.9671,-87.6674,156,183,0,0,156,183,339,339,0
"305",327,"Sheffield Ave & Webster Ave",41.9215,-87.6538,450,450,0,0,450,450,900,900,0
"306",328,"Ellis Ave & 58th St",41.7887,-87.6013,348,367,0,0,348,367,715,715,0
"307",329,"Lake Shore Dr & Diversey Pkwy",41.9326,-87.6364,168,166,0,0,168,166,334,334,0
"308",330,"Lincoln Ave & Addison St",41.9462,-87.6733,77,80,0,0,77,80,157,157,0
"309",331,"Halsted St & Clybourn Ave",41.9097,-87.6481,663,667,0,0,663,667,1330,1330,0
"310",332,"Burling St (Halsted) & Diversey Pkwy (Temp)",41.9331,-87.6478,390,396,0,0,390,396,786,786,0
"311",333,"Ashland Ave & Blackhawk St",41.9071,-87.6673,239,248,0,0,239,248,487,487,0
"312",334,"Lake Shore Dr & Belmont Ave",41.9408,-87.6392,199,198,0,0,199,198,397,397,0
"313",335,"Calumet Ave & 35th St",41.8314,-87.618,27,32,0,0,27,32,59,59,0
"314",336,"Cottage Grove Ave & 47th St",41.8099,-87.6068,28,29,0,0,28,29,57,57,0
"315",337,"Clark St & Chicago Ave",41.8968,-87.6309,451,457,0,0,451,457,908,908,0
"316",338,"Calumet Ave & 18th St",41.8576,-87.6194,234,270,0,0,234,270,504,504,0
"317",339,"Emerald Ave & 31st St",41.8382,-87.6451,129,142,0,0,129,142,271,271,0
"318",340,"Clark St & Wrightwood Ave",41.9295,-87.6431,468,459,0,0,468,459,927,927,0
"319",341,"Adler Planetarium",41.8661,-87.6073,186,153,0,0,186,153,339,339,0
"320",342,"Wolcott Ave & Polk St",41.8713,-87.6737,502,521,0,0,502,521,1023,1023,0
"321",343,"Racine Ave & Wrightwood Ave",41.9289,-87.659,257,254,0,0,257,254,511,511,0
"322",344,"Ravenswood Ave & Lawrence Ave",41.9691,-87.6742,791,821,0,0,791,821,1612,1612,0
"323",345,"Lake Park Ave & 56th St",41.7932,-87.5878,297,299,0,0,297,299,596,596,0
"324",346,"Ada St & Washington Blvd",41.8828,-87.6612,353,364,0,0,353,364,717,717,0
"325",347,"Ashland Ave & Grace St",41.9507,-87.6687,145,146,0,0,145,146,291,291,0
"326",348,"California Ave & 21st St",41.8538,-87.6957,41,46,0,0,41,46,87,87,0
"327",349,"Halsted St & Wrightwood Ave",41.9291,-87.6491,349,331,0,0,349,331,680,680,0
"328",350,"Ashland Ave & Chicago Ave",41.896,-87.6677,177,201,0,0,177,201,378,378,0
"329",351,"Cottage Grove Ave & 51st St",41.803,-87.6066,31,27,0,0,31,27,58,58,0
"330",352,"Jeffery Blvd & 67th St",41.7735,-87.5771,4,3,0,0,4,3,7,7,0
"331",353,"Clark St & Touhy Ave",42.0126,-87.6744,10,10,0,0,10,10,20,20,0
"332",354,"Sheridan Rd & Greenleaf Ave",42.0106,-87.6624,58,39,0,0,58,39,97,97,0
"333",355,"South Shore Dr & 67th St",41.7736,-87.5675,19,18,0,0,19,18,37,37,0
"334",356,"Stony Island Ave & 71st St",41.7665,-87.5865,24,25,0,0,24,25,49,49,0
"335",359,"Larrabee St & Division St",41.9035,-87.6434,404,390,0,0,404,390,794,794,0
"336",364,"Larrabee St & Oak St",41.9002,-87.643,419,431,0,0,419,431,850,850,0
"337",365,"Halsted St & North Branch St",41.8994,-87.6485,87,81,0,0,87,81,168,168,0
"338",366,"Loomis St & Archer Ave",41.8416,-87.6574,85,85,0,0,85,85,170,170,0
"339",367,"Racine Ave & 35th St",41.8307,-87.656,24,22,0,0,24,22,46,46,0
"340",368,"Ashland Ave & Archer Ave",41.8392,-87.6656,26,18,0,0,26,18,44,44,0
"341",369,"Wood St & 35th St",41.8301,-87.6703,15,27,0,0,15,27,42,42,0
"342",370,"Calumet Ave & 21st St",41.8542,-87.6192,73,85,0,0,73,85,158,158,0
"343",373,"Kedzie Ave & Chicago Ave",41.8955,-87.7061,27,35,0,0,27,35,62,62,0
"344",374,"Western Ave & Walton St",41.8984,-87.6866,272,249,0,0,272,249,521,521,0
"345",375,"Sacramento Blvd & Franklin Blvd",41.8905,-87.7026,22,23,0,0,22,23,45,45,0
"346",376,"Artesian Ave & Hubbard St",41.8895,-87.6882,351,257,0,0,351,257,608,608,0
"347",377,"Kedzie Ave & Lake St",41.8846,-87.7063,29,31,0,0,29,31,60,60,0
"348",378,"California Ave & Lake St",41.8845,-87.6963,43,42,0,0,43,42,85,85,0
"349",381,"Western Ave & Monroe St",41.8798,-87.6861,58,75,0,0,58,75,133,133,0
"350",382,"Western Ave & Congress Pkwy",41.8747,-87.6864,69,58,0,0,69,58,127,127,0
"351",383,"Paulina St & Flournoy St",41.873,-87.6691,204,200,0,0,204,200,404,404,0
"352",385,"Princeton Ave & Garfield Blvd",41.795,-87.6331,33,33,0,0,33,33,66,66,0
"353",386,"Halsted St & 56th St",41.7929,-87.645,2,1,0,0,2,1,3,3,0
"354",388,"Halsted St & 63rd St",41.7794,-87.6446,5,7,0,0,5,7,12,12,0
"355",390,"Wentworth Ave & 63rd St",41.7801,-87.6297,7,5,0,0,7,5,12,12,0
"356",391,"Halsted St & 69th St",41.7691,-87.6446,1,1,0,0,1,1,2,2,0
"357",393,"Calumet Ave & 71st St",41.7655,-87.6169,2,0,0,0,2,0,0,0,0
"358",394,"Clark St & 9th St (AMLI)",41.8708,-87.6312,215,203,0,0,215,203,418,418,0
"359",396,"Yates Blvd & 75th St",41.7588,-87.5664,3,3,0,0,3,3,6,6,0
"360",398,"Rainbow Beach",41.7579,-87.5494,8,8,0,0,8,8,16,16,0
"361",399,"South Shore Dr & 74th St",41.7622,-87.5593,8,6,0,0,8,6,14,14,0
"362",400,"Cottage Grove Ave & 71st St",41.7657,-87.605,3,2,0,0,3,2,5,5,0
"363",401,"Shields Ave & 28th Pl",41.8427,-87.6355,28,24,0,0,28,24,52,52,0
"364",402,"Shields Ave & 31st St",41.8385,-87.6354,58,66,0,0,58,66,124,124,0
"365",403,"Wentworth Ave & 33rd St",41.8345,-87.6318,33,34,0,0,33,34,67,67,0
"366",405,"Wentworth Ave & 35th St",41.8308,-87.6325,70,55,0,0,70,55,125,125,0
"367",406,"Lake Park Ave & 35th St",41.8313,-87.6088,89,94,0,0,89,94,183,183,0
"368",407,"State St & Pershing Rd",41.823,-87.6266,7,4,0,0,7,4,11,11,0
"369",408,"Union Ave & Root St",41.8191,-87.6433,2,3,0,0,2,3,5,5,0
"370",409,"Shields Ave & 43rd St",41.8162,-87.6348,0,0,0,0,0,0,0,0,0
"371",410,"Prairie Ave & 43rd St",41.8167,-87.6194,30,30,0,0,30,30,60,60,0
"372",411,"Halsted St & 47th Pl",41.8081,-87.6456,10,12,0,0,10,12,22,22,0
"373",412,"Princeton Ave & 47th St",41.8093,-87.6334,25,6,0,0,25,6,31,31,0
"374",413,"Woodlawn Ave & Lake Park Ave",41.8141,-87.597,59,59,0,0,59,59,118,118,0
"375",414,"Canal St & Taylor St",41.8703,-87.6395,300,342,0,0,300,342,642,642,0
"376",415,"Calumet Ave & 51st St",41.8023,-87.6181,22,20,0,0,22,20,42,42,0
"377",416,"Dorchester Ave & 49th St",41.8058,-87.5925,20,29,0,0,20,29,49,49,0
"378",417,"Cornell Ave & Hyde Park Blvd",41.8024,-87.5869,242,220,0,0,242,220,462,462,0
"379",418,"Ellis Ave & 53rd St",41.7993,-87.601,224,232,0,0,224,232,456,456,0
"380",419,"Lake Park Ave & 53rd St",41.7995,-87.5865,122,132,0,0,122,132,254,254,0
"381",420,"Ellis Ave & 55th St",41.7943,-87.6015,561,541,0,0,561,541,1102,1102,0
"382",421,"MLK Jr Dr & 56th St",41.7934,-87.6159,7,6,0,0,7,6,13,13,0
"383",422,"DuSable Museum",41.7916,-87.6079,12,15,0,0,12,15,27,27,0
"384",423,"University Ave & 57th St",41.7915,-87.5999,823,825,0,0,823,825,1648,1648,0
"385",424,"Museum of Science and Industry",41.7917,-87.5839,31,32,0,0,31,32,63,63,0
"386",425,"Harper Ave & 59th St",41.7879,-87.5883,168,167,0,0,168,167,335,335,0
"387",426,"Ellis Ave & 60th St",41.7851,-87.6011,541,525,0,0,541,525,1066,1066,0
"388",427,"Cottage Grove Ave & 63rd St",41.7806,-87.6061,11,15,0,0,11,15,26,26,0
"389",428,"Dorchester Ave & 63rd St",41.7804,-87.5914,8,3,0,0,8,3,11,11,0
"390",429,"Cottage Grove Ave & 67th St",41.7737,-87.6056,2,3,0,0,2,3,5,5,0
"391",430,"MLK Jr Dr & 63rd St",41.7801,-87.6159,4,5,0,0,4,5,9,9,0
"392",431,"Eberhart Ave & 61st St",41.7841,-87.6133,0,0,0,0,0,0,0,0,0
"393",432,"Clark St & Lunt Ave",42.0091,-87.6742,122,149,0,0,122,149,271,271,0
"394",433,"Kedzie Ave & Harrison St",41.8736,-87.7049,4,1,0,0,4,1,5,5,0
"395",434,"Ogden Ave & Roosevelt Rd",41.8665,-87.6847,41,36,0,0,41,36,77,77,0
"396",435,"Kedzie Ave & Roosevelt Rd",41.8665,-87.7065,1,3,0,0,1,3,4,4,0
"397",436,"Fairfield Ave & Roosevelt Rd",41.8666,-87.6945,9,10,0,0,9,10,19,19,0
"398",437,"Washtenaw Ave & Ogden Ave",41.8619,-87.6935,47,38,0,0,47,38,85,85,0
"399",438,"Central Park Ave & Ogden Ave",41.8542,-87.7154,3,5,0,0,3,5,8,8,0
"400",439,"Kedzie Ave & 21st St",41.8535,-87.7051,14,14,0,0,14,14,28,28,0
"401",440,"Central Park Ave & 24th St",41.8481,-87.7151,3,1,0,0,3,1,4,4,0
"402",441,"Kedzie Ave & 24th St",41.8482,-87.7054,1,1,0,0,1,1,2,2,0
"403",442,"California Ave & 23rd Pl",41.8491,-87.6951,28,22,0,0,28,22,50,50,0
"404",443,"Millard Ave & 26th St",41.8446,-87.7159,1,2,0,0,1,2,3,3,0
"405",444,"Albany Ave & 26th St",41.8445,-87.702,4,5,0,0,4,5,9,9,0
"406",445,"California Ave & 26th St",41.844,-87.6953,10,9,0,0,10,9,19,19,0
"407",446,"Western Ave & 28th St",41.8415,-87.6851,1,1,0,0,1,1,2,2,0
"408",447,"Glenwood Ave & Morse Ave",42.008,-87.6655,102,103,0,0,102,103,205,205,0
"409",448,"Warren Park East",42.0046,-87.6807,11,7,0,0,11,7,18,18,0
"410",449,"Clark St & Columbia Ave",42.0045,-87.6724,73,68,0,0,73,68,141,141,0
"411",450,"Warren Park West",42.0018,-87.6888,18,27,0,0,18,27,45,45,0
"412",451,"Sheridan Rd & Loyola Ave",42.001,-87.6612,85,85,0,0,85,85,170,170,0
"413",452,"Western Ave & Granville Ave",41.9942,-87.6894,37,40,0,0,37,40,77,77,0
"414",453,"Clark St & Schreiber Ave",41.9993,-87.6714,76,82,0,0,76,82,158,158,0
"415",454,"Broadway & Granville Ave",41.9948,-87.6603,145,152,0,0,145,152,297,297,0
"416",455,"Maplewood Ave & Peterson Ave",41.9902,-87.6934,2,1,0,0,2,1,3,3,0
"417",456,"2112 W Peterson Ave",41.9912,-87.6836,8,20,0,0,8,20,28,28,0
"418",457,"Clark St & Elmdale Ave",41.9905,-87.6698,82,88,0,0,82,88,170,170,0
"419",458,"Broadway & Thorndale Ave",41.9897,-87.6601,94,122,0,0,94,122,216,216,0
"420",459,"Lakefront Trail & Bryn Mawr Ave",41.984,-87.6523,75,95,0,0,75,95,170,170,0
"421",460,"Clark St & Bryn Mawr Ave",41.9836,-87.6692,155,171,0,0,155,171,326,326,0
"422",461,"Broadway & Ridge Ave",41.984,-87.6603,160,153,0,0,160,153,313,313,0
"423",462,"Winchester (Ravenswood) Ave & Balmoral Ave",41.9798,-87.6775,111,131,0,0,111,131,242,242,0
"424",463,"Clark St & Berwyn Ave",41.978,-87.668,237,261,0,0,237,261,498,498,0
"425",464,"Damen Ave & Foster Ave",41.9756,-87.6795,165,174,0,0,165,174,339,339,0
"426",465,"Marine Dr & Ainslie St",41.9716,-87.6502,69,59,0,0,69,59,128,128,0
"427",466,"Ridge Blvd & Touhy Ave",42.0121,-87.6829,15,14,0,0,15,14,29,29,0
"428",467,"Western Ave & Lunt Ave",42.0086,-87.6905,43,45,0,0,43,45,88,88,0
"429",468,"Budlong Woods Library",41.9837,-87.6964,12,14,0,0,12,14,26,26,0
"430",469,"St. Louis Ave & Balmoral Ave",41.9804,-87.7161,32,25,0,0,32,25,57,57,0
"431",470,"Kedzie Ave & Foster Ave",41.9757,-87.7093,31,32,0,0,31,32,63,63,0
"432",471,"Francisco Ave & Foster Ave",41.9756,-87.7014,40,44,0,0,40,44,84,84,0
"433",472,"Lincoln Ave & Winona St",41.9749,-87.6925,66,63,0,0,66,63,129,129,0
"434",474,"Christiana Ave & Lawrence Ave",41.9684,-87.7118,41,36,0,0,41,36,77,77,0
"435",475,"Washtenaw Ave & Lawrence Ave",41.969,-87.696,82,86,0,0,82,86,168,168,0
"436",476,"Kedzie Ave & Leland Ave",41.9667,-87.7081,37,31,0,0,37,31,68,68,0
"437",477,"Manor Ave & Leland Ave",41.9659,-87.7008,35,42,0,0,35,42,77,77,0
"438",478,"Rockwell St & Eastwood Ave",41.9659,-87.6936,89,101,0,0,89,101,190,190,0
"439",479,"Drake Ave & Montrose Ave",41.9612,-87.7166,40,36,0,0,40,36,76,76,0
"440",480,"Albany Ave & Montrose Ave",41.961,-87.7059,12,29,0,0,12,29,41,41,0
"441",481,"California Ave & Montrose Ave",41.9611,-87.6954,39,55,0,0,39,55,94,94,0
"442",482,"Campbell Ave & Montrose Ave",41.9615,-87.6912,118,122,0,0,118,122,240,240,0
"443",483,"Avondale Ave & Irving Park Rd",41.9534,-87.732,61,72,0,0,61,72,133,133,0
"444",484,"Monticello Ave & Irving Park Rd",41.954,-87.7191,60,59,0,0,60,59,119,119,0
"445",485,"Sawyer Ave & Irving Park Rd",41.9536,-87.7093,14,23,0,0,14,23,37,37,0
"446",486,"Oakley Ave & Irving Park Rd",41.9543,-87.6861,62,89,0,0,62,89,151,151,0
"447",487,"California Ave & Byron St",41.9522,-87.6981,19,40,0,0,19,40,59,59,0
"448",488,"Pulaski Rd & Eddy St (Temp)",41.9463,-87.731,43,51,0,0,43,51,94,94,0
"449",489,"Drake Ave & Addison St",41.9473,-87.7176,91,83,0,0,91,83,174,174,0
"450",490,"Troy St & Elston Ave",41.9452,-87.7067,67,56,0,0,67,56,123,123,0
"451",491,"Talman Ave & Addison St",41.9466,-87.6946,96,125,0,0,96,125,221,221,0
"452",492,"Leavitt St & Addison St",41.9467,-87.6834,25,27,0,0,25,27,52,52,0
"453",493,"Western Ave & Roscoe St",41.943,-87.6873,113,115,0,0,113,115,228,228,0
"454",494,"Kedzie Ave & Bryn Mawr Ave",41.9824,-87.7089,14,36,0,0,14,36,50,50,0
"455",495,"Keystone Ave & Montrose Ave",41.9611,-87.729,18,13,0,0,18,13,31,31,0
"456",496,"Avers Ave & Belmont Ave",41.9394,-87.7236,51,39,0,0,51,39,90,90,0
"457",497,"Kimball Ave & Belmont Ave",41.9394,-87.7116,39,43,0,0,39,43,82,82,0
"458",498,"California Ave & Fletcher St",41.9384,-87.698,36,49,0,0,36,49,85,85,0
"459",499,"Kosciuszko Park",41.9306,-87.7238,94,92,0,0,94,92,186,186,0
"460",500,"Central Park Ave & Elbridge Ave",41.9353,-87.7169,37,33,0,0,37,33,70,70,0
"461",501,"Richmond St & Diversey Ave",41.9319,-87.7012,71,67,0,0,71,67,138,138,0
"462",502,"California Ave & Altgeld St",41.9267,-87.6977,83,80,0,0,83,80,163,163,0
"463",503,"Drake Ave & Fullerton Ave",41.9244,-87.7154,90,88,0,0,90,88,178,178,0
"464",504,"Campbell Ave & Fullerton Ave",41.9246,-87.6893,71,91,0,0,71,91,162,162,0
"465",505,"Winchester Ave & Elston Ave",41.9241,-87.6765,101,116,0,0,101,116,217,217,0
"466",506,"Spaulding Ave & Armitage Ave",41.9171,-87.7102,120,133,0,0,120,133,253,253,0
"467",507,"Humboldt Blvd & Armitage Ave",41.9175,-87.7018,112,107,0,0,112,107,219,219,0
"468",508,"Central Park Ave & North Ave",41.9097,-87.7166,53,40,0,0,53,40,93,93,0
"469",509,"Troy St & North Ave",41.9098,-87.7053,43,42,0,0,43,42,85,85,0
"470",510,"Spaulding Ave & Division St",41.9027,-87.7092,35,34,0,0,35,34,69,69,0
"471",511,"Albany Ave & Bloomingdale Ave",41.914,-87.7051,131,140,0,0,131,140,271,271,0
"472",514,"Ridge Blvd & Howard St",42.0193,-87.6845,24,24,0,0,24,24,48,48,0
"473",515,"Paulina St & Howard St",42.0192,-87.6736,113,122,0,0,113,122,235,235,0
"474",517,"Clark St & Jarvis Ave",42.016,-87.675,29,22,0,0,29,22,51,51,0
"475",518,"Conservatory Dr & Lake St",41.8855,-87.7169,11,14,0,0,11,14,25,25,0
"476",519,"Wolcott Ave & Fargo Ave",42.017,-87.6777,14,14,0,0,14,14,28,28,0
"477",520,"Greenview Ave & Jarvis Ave",42.016,-87.6686,95,102,0,0,95,102,197,197,0
"478",522,"Bosworth Ave & Howard St",42.0195,-87.6696,15,10,0,0,15,10,25,25,0
"479",523,"Eastlake Ter & Rogers Ave",42.0209,-87.6651,109,112,0,0,109,112,221,221,0
"480",524,"Austin Blvd & Chicago Ave",41.8949,-87.7747,4,8,0,0,4,8,12,12,0
"481",525,"Glenwood Ave & Touhy Ave",42.0127,-87.6661,36,33,0,0,36,33,69,69,0
"482",526,"Oakley Ave & Touhy Ave",42.0123,-87.6882,16,11,0,0,16,11,27,27,0
"483",527,"Western Ave & Howard St",42.0189,-87.69,37,36,0,0,37,36,73,73,0
"484",528,"Pulaski Rd & Lake St",41.8854,-87.7265,3,2,0,0,3,2,5,5,0
"485",531,"Central Ave & Lake St",41.8877,-87.7655,6,6,0,0,6,6,12,12,0
"486",532,"Austin Blvd & Lake St",41.8879,-87.7744,8,13,0,0,8,13,21,21,0
"487",533,"Central Park Blvd & 5th Ave",41.8757,-87.7155,1,3,0,0,1,3,4,4,0
"488",535,"Pulaski Rd & Congress Pkwy",41.8743,-87.7257,6,8,0,0,6,8,14,14,0
"489",536,"Kostner Ave & Lake St",41.8859,-87.7354,1,1,0,0,1,1,2,2,0
"490",538,"Cicero Ave & Flournoy St",41.8721,-87.7466,1,2,0,0,1,2,3,3,0
"491",539,"Cicero Ave & Quincy St",41.8776,-87.7454,2,0,0,0,2,0,0,0,0
"492",540,"Laramie Ave & Madison St",41.8802,-87.7553,2,1,0,0,2,1,3,3,0
"493",541,"Central Ave & Harrison St",41.873,-87.7645,1,1,0,0,1,1,2,2,0
"494",542,"Central Ave & Madison St",41.8801,-87.7632,1,1,0,0,1,1,2,2,0
"495",543,"Laramie Ave & Gladys Ave",41.8758,-87.7553,2,1,0,0,2,1,3,3,0
"496",544,"Austin Blvd & Madison St",41.8803,-87.7745,4,4,0,0,4,4,8,8,0
"497",546,"Damen Ave & Pershing Rd",41.8232,-87.6766,4,5,0,0,4,5,9,9,0
"498",547,"Ashland Ave & Pershing Rd",41.8235,-87.6656,6,13,0,0,6,13,19,19,0
"499",548,"Morgan St & Pershing Rd",41.8236,-87.6509,3,3,0,0,3,3,6,6,0
"500",549,"Marshfield Ave & 44th St",41.814,-87.6666,2,3,0,0,2,3,5,5,0
"501",550,"Central Ave & Chicago Ave",41.895,-87.7649,9,9,0,0,9,9,18,18,0
"502",551,"Hoyne Ave & 47th St",41.8082,-87.6772,2,3,0,0,2,3,5,5,0
"503",552,"Ashland Ave & McDowell Ave",41.8089,-87.6645,16,12,0,0,16,12,28,28,0
"504",553,"Elizabeth St & 47th St",41.8084,-87.6565,3,6,0,0,3,6,9,9,0
"505",554,"Damen Ave & 51st St",41.8009,-87.6747,3,0,0,0,3,0,0,0,0
"506",555,"Ashland Ave & 50th St",41.803,-87.6647,4,4,0,0,4,4,8,8,0
"507",556,"Throop St & 52nd St",41.7997,-87.6572,2,1,0,0,2,1,3,3,0
"508",557,"Seeley Ave & Garfield Blvd",41.7941,-87.6755,0,0,0,0,0,0,0,0,0
"509",558,"Ashland Ave & Garfield Blvd",41.7928,-87.6644,9,4,0,0,9,4,13,13,0
"510",559,"Racine Ave & Garfield Blvd",41.7942,-87.6551,8,24,0,0,8,24,32,32,0
"511",563,"Ashland Ave & 63rd St",41.7794,-87.6648,1,0,0,0,1,0,0,0,0
"512",566,"Ashland Ave & 69th St",41.7687,-87.6641,0,0,0,0,0,0,0,0,0
"513",567,"May St & 69th St",41.7689,-87.6529,1,1,0,0,1,1,2,2,0
"514",570,"Evans Ave & 75th St",41.7585,-87.6064,8,11,0,0,8,11,19,19,0
"515",571,"Vernon Ave & 75th St",41.7584,-87.6141,10,10,0,0,10,10,20,20,0
"516",572,"State St & 76th St",41.757,-87.6246,3,3,0,0,3,3,6,6,0
"517",573,"State St & 79th St",41.7508,-87.6244,18,10,0,0,18,10,28,28,0
"518",574,"Vernon Ave & 79th St",41.7509,-87.6138,5,4,0,0,5,4,9,9,0
"519",575,"Cottage Grove Ave & 78th St",41.7532,-87.605,3,2,0,0,3,2,5,5,0
"520",576,"Greenwood Ave & 79th St",41.7513,-87.5976,6,13,0,0,6,13,19,19,0
"521",577,"Stony Island Ave & South Chicago Ave",41.7512,-87.5853,1,1,0,0,1,1,2,2,0
"522",578,"Bennett Ave & 79th St",41.7518,-87.5785,1,0,0,0,1,0,0,0,0
"523",580,"Exchange Ave & 79th St",41.7517,-87.5528,2,1,0,0,2,1,3,3,0
"524",581,"Commercial Ave & 83rd St",41.7446,-87.5512,2,3,0,0,2,3,5,5,0
"525",582,"Phillips Ave & 83rd St",41.7445,-87.5651,1,1,0,0,1,1,2,2,0
"526",583,"Stony Island Ave & 82nd St",41.7466,-87.586,3,4,0,0,3,4,7,7,0
"527",584,"Ellis Ave & 83rd St",41.7441,-87.599,1,0,0,0,1,0,0,0,0
"528",585,"Cottage Grove Ave & 83rd St",41.7434,-87.6048,3,6,0,0,3,6,9,9,0
"529",586,"MLK Jr Dr & 83rd St",41.7431,-87.6148,5,8,0,0,5,8,13,13,0
"530",587,"Wabash Ave & 83rd St",41.7433,-87.6228,5,6,0,0,5,6,11,11,0
"531",588,"South Chicago Ave & 83rd St",41.7439,-87.5752,1,0,0,0,1,0,0,0,0
"532",589,"Milwaukee Ave & Cuyler Ave",41.9545,-87.7496,7,9,0,0,7,9,16,16,0
"533",590,"Kilbourn Ave & Irving Park Rd",41.9537,-87.7406,11,11,0,0,11,11,22,22,0
"534",591,"Kilbourn Ave & Milwaukee Ave",41.9488,-87.74,25,30,0,0,25,30,55,55,0
"535",592,"Knox Ave & Montrose Ave",41.9606,-87.7454,12,20,0,0,12,20,32,32,0
"536",594,"Western Blvd & 48th Pl",41.8057,-87.6834,7,12,0,0,7,12,19,19,0
"537",595,"Wabash Ave & 87th St",41.7366,-87.6226,6,4,0,0,6,4,10,10,0
"538",596,"Benson Ave & Church St",42.0482,-87.6835,228,228,0,0,228,228,456,456,0
"539",597,"Chicago Ave & Washington St",42.0326,-87.6791,78,101,0,0,78,101,179,179,0
"540",598,"Elmwood Ave & Austin St",42.0258,-87.6841,53,39,0,0,53,39,92,92,0
"541",599,"Valli Produce - Evanston Plaza",42.0397,-87.6994,13,20,0,0,13,20,33,33,0
"542",600,"Dodge Ave & Church St",42.0483,-87.6982,36,15,0,0,36,15,51,51,0
"543",601,"Central St Metra",42.0636,-87.6987,64,68,0,0,64,68,132,132,0
"544",602,"Central St & Girard Ave",42.0643,-87.6862,50,29,0,0,50,29,79,79,0
"545",603,"Chicago Ave & Sheridan Rd",42.0505,-87.6778,61,73,0,0,61,73,134,134,0
"546",604,"Sheridan Rd & Noyes St (NU)",42.0582,-87.6774,147,184,0,0,147,184,331,331,0
"547",605,"University Library (NU)",42.0529,-87.6734,94,113,0,0,94,113,207,207,0
"548",619,"Keystone Ave & Fullerton Ave",41.9246,-87.7279,26,25,0,0,26,25,51,51,0
"549",620,"Orleans St & Chestnut St (NEXT Apts)",41.8982,-87.6375,270,251,0,0,270,251,521,521,0
"550",621,"Aberdeen St & Randolph St",41.8841,-87.6543,419,408,0,0,419,408,827,827,0
"551",622,"California Ave & Cortez St",41.9004,-87.6967,183,197,0,0,183,197,380,380,0
"552",623,"Michigan Ave & 8th St",41.8728,-87.624,243,198,0,0,243,198,441,441,0
"553",624,"Dearborn St & Van Buren St",41.8763,-87.6292,309,311,0,0,309,311,620,620,0
"554",625,"Chicago Ave & Dempster St",42.0417,-87.6807,93,82,0,0,93,82,175,175,0
"555",626,"Delano Ct & Roosevelt Rd",41.8675,-87.6322,253,216,0,0,253,216,469,469,0
"556",627,"LaSalle Dr & Huron St",41.8949,-87.6323,417,405,0,0,417,405,822,822,0
"557",628,"Walsh Park",41.9146,-87.668,86,90,0,0,86,90,176,176,0
"558",630,"Kildare Ave & Montrose Ave",41.9611,-87.7357,17,7,0,0,17,7,24,24,0
"559",631,"Malcolm X College",41.8776,-87.6739,45,52,0,0,45,52,97,97,0
"560",632,"Clark St & Newport St",41.9445,-87.6547,209,174,0,0,209,174,383,383,0
"561",635,"Fairbanks St & Superior St",41.8957,-87.6201,326,327,0,0,326,327,653,653,0
"562",636,"Orleans St & Hubbard St",41.89,-87.6366,408,359,0,0,408,359,767,767,0
"563",637,"Wood St & Chicago Ave (*)",41.8956,-87.6721,218,191,0,0,218,191,409,409,0
"564",638,"Clinton St & Jackson Blvd",41.8781,-87.6398,913,929,0,0,913,929,1842,1842,0
"565",639,"Lakefront Trail & Wilson Ave",41.9658,-87.6454,39,45,0,0,39,45,84,84,0
"566",640,"Bernard St & Elston Ave",41.9499,-87.7139,39,28,0,0,39,28,67,67,0
"567",641,"Central Park Ave & Bloomingdale Ave",41.9142,-87.7168,50,63,0,0,50,63,113,113,0
"568",642,"Latrobe Ave & Chicago Ave",41.8947,-87.7569,2,3,0,0,2,3,5,5,0
"569",643,"Smith Park (*)",41.892,-87.6894,32,31,0,0,32,31,63,63,0
"570",644,"Western Ave & Fillmore St (*)",41.8686,-87.6862,94,91,0,0,94,91,185,185,0
"571",645,"Archer (Damen) Ave & 37th St",41.8267,-87.6831,34,38,0,0,34,38,72,72,0
"572",646,"State St & 54th St",41.7966,-87.6259,0,0,0,0,0,0,0,0,0
"573",647,"Elizabeth St & 59th St",41.7867,-87.6559,3,1,0,0,3,1,4,4,0
"574",649,"Stewart Ave & 63rd St (*)",41.7798,-87.6348,3,4,0,0,3,4,7,7,0
"575",650,"Eggleston Ave & 69th St (*)",41.7689,-87.6359,1,0,0,0,1,0,0,0,0
"576",651,"Michigan Ave & 71st St",41.7653,-87.6217,1,0,0,0,1,0,0,0,0
"577",653,"Cornell Dr & Hayes Dr",41.7806,-87.5848,2,2,0,0,2,2,4,4,0
"578",654,"Racine Ave & Washington Blvd (*)",41.8831,-87.657,209,198,0,0,209,198,407,407,0
"579",655,"Hoyne Ave & Balmoral Ave",41.9799,-87.6819,76,66,0,0,76,66,142,142,0
"580",656,"Damen Ave & Walnut (Lake) St (*)",41.886,-87.677,57,107,0,0,57,107,164,164,0
"581",657,"Wood St & Augusta Blvd",41.8992,-87.6722,220,224,0,0,220,224,444,444,0
"582",658,"Leavitt St & Division St (*)",41.903,-87.6838,104,124,0,0,104,124,228,228,0
"583",659,"Leavitt St & Chicago Ave",41.8955,-87.682,141,140,0,0,141,140,281,281,0
"584",660,"Sheridan Rd & Columbia Ave",42.0046,-87.6614,65,73,0,0,65,73,138,138,0
"585",661,"Evanston Civic Center",42.057,-87.6866,12,17,0,0,12,17,29,29,0
"586",662,"Dodge Ave & Mulford St",42.0235,-87.6996,9,10,0,0,9,10,19,19,0
"587",663,"Lincolnwood Dr & Central St",42.0649,-87.7153,48,52,0,0,48,52,100,100,0
"588",664,"Leavitt St & Belmont Ave (*)",41.9394,-87.6833,61,73,0,0,61,73,134,134,0
"589",666,"Cherry Ave & Blackhawk St",41.9072,-87.6556,70,74,0,0,70,74,144,144,0
"590",670,"MTL-ECO5.1-01",41.9171,-87.7482,1,1,0,0,1,1,2,2,0
"591",671,"HUBBARD ST BIKE CHECKING (LBS-WH-TEST)",41.89,-87.6807,1,7,0,0,1,7,8,8,0
"592",672,"Franklin St & Illinois St",41.891,-87.6355,494,501,0,0,494,501,995,995,0
"593",673,"Lincoln Park Conservatory",41.9239,-87.6358,134,143,0,0,134,143,277,277,0
