"","station_id","station_name","lat","long","start_n","end_n","e_start_n","e_end_n","c_start_n","c_end_n","total","classic","electric"
"1","","",41.91,-87.71,18580,20355,18580,20147,0,0,38935,0,38727
"2","13001","Michigan Ave & Washington St",41.8839840647265,-87.6246839761734,553,574,153,154,392,408,1127,800,307
"3","13006","LaSalle St & Washington St",41.88255918,-87.632295489,383,366,219,212,162,153,749,315,431
"4","13008","Millennium Park",41.881049514,-87.624100327,351,360,121,121,191,188,711,379,242
"5","13011","Canal St & Adams St",41.879255,-87.639904,609,662,227,219,377,439,1271,816,446
"6","13016","St. Clair St & Erie St",41.8943451374243,-87.6227983832359,674,684,249,250,421,426,1358,847,499
"7","13017","Franklin St & Chicago Ave",41.896774888,-87.635635614,386,397,183,183,198,213,783,411,366
"8","13021","Clinton St & Lake St",41.885637,-87.641823,493,518,191,190,298,326,1011,624,381
"9","13022","Streeter Dr & Grand Ave",41.892278,-87.612043,373,386,83,74,243,239,759,482,157
"10","13028","900 W Harrison St",41.8747603333333,-87.6497881666667,344,365,117,116,221,242,709,463,233
"11","13029","Field Museum",41.865312,-87.617867,62,50,11,11,44,28,112,72,22
"12","13033","Milwaukee Ave & Grand Ave",41.891737819,-87.648443222,409,382,221,204,185,176,791,361,425
"13","13034","Michigan Ave & Pearson St",41.89766,-87.62351,187,230,74,74,113,148,417,261,148
"14","13036","Michigan Ave & Madison St",41.882134,-87.625125,247,243,91,89,132,141,490,273,180
"15","13037","Clinton St & Tilden St",41.8757951666667,-87.6406073333333,103,91,47,35,56,56,194,112,82
"16","13042","Michigan Ave & Oak St",41.900904775,-87.623782635,225,287,94,92,121,184,512,305,186
"17","13045","Dearborn St & Erie St",41.894139528,-87.629143119,634,669,234,233,396,426,1303,822,467
"18","13050","State St & Kinzie St",41.88951242,-87.627800345,390,416,172,171,211,236,806,447,343
"19","13053","Green St & Randolph St",41.8831813059739,-87.6487246155739,248,264,105,107,142,155,512,297,212
"20","13056","Canal St & Monroe St",41.8813858333333,-87.6389655,392,395,171,172,219,218,787,437,343
"21","13058","Dayton St & North Ave",41.9106551666667,-87.649401,233,243,104,108,126,133,476,259,212
"22","13059","Bissell St & Armitage Ave",41.9180181423719,-87.6521819829941,260,291,114,120,142,166,551,308,234
"23","13061","Ashland Ave & Division St",41.90345,-87.667747,606,573,345,315,255,246,1179,501,660
"24","13063","Sheridan Rd & Irving Park Rd",41.954245,-87.654406,336,327,100,100,235,225,663,460,200
"25","13068","Western Ave & Winnebago Ave",41.9156546666667,-87.686891,192,180,99,94,85,83,372,168,193
"26","13071","Southport Ave & Roscoe St",41.943649292,-87.663845778,328,366,116,116,207,246,694,453,232
"27","13073","Ashland Ave & Lake St",41.88592,-87.66717,152,122,56,51,95,71,274,166,107
"28","13074","Broadway & Wilson - Truman College Vaccination Site",41.965221,-87.658139,166,207,55,57,109,148,373,257,112
"29","13075","Wentworth Ave & Cermak Rd",41.8530845574128,-87.6319313049316,115,136,43,42,69,90,251,159,85
"30","13080","Hermitage Ave & Polk St",41.8715066666667,-87.6699261666667,133,130,56,56,75,74,263,149,112
"31","13081","Ogden Ave & Congress Pkwy",41.87501,-87.67328,63,74,33,34,30,40,137,70,67
"32","13083","Indiana Ave & 40th St",41.82168,-87.6216,8,6,4,3,4,3,14,7,7
"33","13084","California Ave & Milwaukee Ave",41.922695,-87.697153,233,235,160,152,68,80,468,148,312
"34","13085","Kedzie Ave & Milwaukee Ave",41.9295225,-87.7079361666667,247,242,157,158,84,80,489,164,315
"35","13089","Damen Ave & Cullerton St",41.8549665187539,-87.6756995916366,78,83,34,34,43,45,161,88,68
"36","13091","Western Ave & 21st St",41.8540436666667,-87.6859215,45,46,28,28,16,17,91,33,56
"37","13096","California Ave & 21st St",41.8538183333333,-87.6957955,23,19,10,8,13,10,42,23,18
"38","13099","Halsted St & 18th St",41.8575056803172,-87.6459914445877,59,75,30,31,29,44,134,73,61
"39","13102","Calumet Ave & 18th St",41.857611,-87.619407,136,153,65,64,70,87,289,157,129
"40","13108","Broadway & Argyle St",41.9738138333333,-87.6596438333333,206,189,50,46,151,142,395,293,96
"41","13109","Broadway & Berwyn Ave",41.978353,-87.659753,170,191,86,83,82,103,361,185,169
"42","13124","Cannon Dr & Fullerton Ave",41.9267705,-87.6344535,38,44,10,9,23,33,82,56,19
"43","13128","Clark St & North Ave",41.9118271666667,-87.6322438333333,160,181,49,51,110,124,341,234,100
"44","13132","Damen Ave & Chicago Ave",41.895621538,-87.677099466,295,319,172,168,122,148,614,270,340
"45","13133","Damen Ave & Cortland St",41.915983,-87.677335,194,195,79,79,112,114,389,226,158
"46","13134","Damen Ave & Madison St",41.88137,-87.67493,116,101,61,56,53,41,217,94,117
"47","13135","Blue Island Ave & 18th St",41.857556,-87.661535,115,106,59,61,54,43,221,97,120
"48","13136","Damen Ave & Division St",41.903266,-87.678435,219,227,127,132,88,92,446,180,259
"49","13137","Broadway & Barry Ave",41.9375823160063,-87.6440978050232,515,523,159,159,351,355,1038,706,318
"50","13138","Canal St & Jackson Blvd",41.877245,-87.639366,291,305,101,103,186,201,596,387,204
"51","13139","Throop St & Taylor St",41.8688323333333,-87.6591108333333,160,175,56,52,104,121,335,225,108
"52","13143","Damen Ave & Melrose Ave",41.9405611666667,-87.6786103333333,43,37,17,18,25,19,80,44,35
"53","13144","Seeley Ave & Roscoe St",41.94332,-87.6797,126,140,80,79,43,60,266,103,159
"54","13146","Clark St & Armitage Ave",41.9183476666667,-87.6362826666667,335,304,136,125,193,172,639,365,261
"55","13150","Michigan Ave & 18th St",41.8578468333333,-87.6245331666667,177,173,44,46,131,126,350,257,90
"56","13154","Sheffield Ave & Kingsbury St",41.910522,-87.653106,333,355,135,137,196,213,688,409,272
"57","13155","Racine Ave & Randolph St",41.8841753333333,-87.6569458333333,100,101,49,47,51,54,201,105,96
"58","13156","Aberdeen St & Monroe St",41.880419,-87.655519,293,328,103,105,187,218,621,405,208
"59","13157","Aberdeen St & Jackson Blvd",41.87772613,-87.65478743,271,291,101,104,168,182,562,350,205
"60","13158","Peoria St & Jackson Blvd",41.8776415962753,-87.6496177911758,410,368,139,128,269,236,778,505,267
"61","13160","May St & Taylor St",41.8694821,-87.6554864,294,291,86,86,205,202,585,407,172
"62","13162","Halsted St & 21st St",41.8537798107274,-87.6466029882431,26,38,12,12,14,25,64,39,24
"63","13163","Morgan St & 18th St",41.858086,-87.651073,109,124,59,61,47,61,233,108,120
"64","13164","Racine Ave & 18th St",41.858166,-87.656495,152,152,69,71,81,79,304,160,140
"65","13165","Racine Ave & 13th St",41.8650245,-87.6570175,16,16,11,11,5,5,32,10,22
"66","13179","Clark St & Lincoln Ave",41.915848136,-87.634654522,300,253,125,105,170,144,553,314,230
"67","13191","Sedgwick St & Webster Ave",41.9222128333333,-87.6389071666667,269,242,82,79,181,162,511,343,161
"68","13192","Halsted St & Dickens Ave",41.919936,-87.64883,308,271,118,108,188,161,579,349,226
"69","13193","Larrabee St & Webster Ave",41.921822,-87.64414,304,294,112,110,185,167,598,352,222
"70","13194","Ogden Ave & Race Ave",41.891795,-87.658751,260,279,133,129,126,149,539,275,262
"71","13196","Carpenter St & Huron St",41.894453645,-87.653370023,234,187,125,102,109,85,421,194,227
"72","13197","Elizabeth (May) St & Fulton St",41.8866164860277,-87.6580399274826,162,166,105,94,55,72,328,127,199
"73","13206","Loomis St & Jackson Blvd",41.877945,-87.662007,159,154,21,22,138,132,313,270,43
"74","13213","State St & 29th St",41.841707,-87.626938,38,45,3,3,35,42,83,77,6
"75","13215","Rhodes Ave & 32nd St",41.836208,-87.613533,92,63,26,25,66,38,155,104,51
"76","13216","State St & 33rd St",41.834734,-87.625813,373,441,132,131,236,308,814,544,263
"77","13217","Calumet Ave & 33rd St",41.834857464,-87.617849708,209,145,57,47,152,98,354,250,104
"78","13221","Wood St & Milwaukee Ave",41.907655,-87.672552,253,254,138,129,112,120,507,232,267
"79","13224","Ashland Ave & Blackhawk St",41.907066,-87.667252,235,249,96,94,139,154,484,293,190
"80","13229","Southport Ave & Belmont Ave",41.939403296,-87.663674593,216,201,81,77,133,123,417,256,158
"81","13235","Southport Ave & Waveland Ave",41.94815,-87.66394,355,353,109,106,243,245,708,488,215
"82","13241","Western Ave & Division St",41.902893,-87.687275,115,125,68,73,44,51,240,95,141
"83","13242","Milwaukee Ave & Rockwell St",41.9201955620057,-87.6926591992378,98,104,49,49,49,54,202,103,98
"84","13243","Milwaukee Ave & Wabansia Ave",41.9126315,-87.6814998333333,250,295,150,154,98,139,545,237,304
"85","13245","Claremont Ave & Hirsch St",41.907781,-87.685854,43,39,21,17,22,22,82,44,38
"86","13247","Ashland Ave & Chicago Ave",41.8959456666667,-87.6677248333333,173,183,95,93,77,90,356,167,188
"87","13248","Ashland Ave & Augusta Blvd",41.899643,-87.6677,200,164,80,68,120,95,364,215,148
"88","13249","Ashland Ave & Belle Plaine Ave",41.956057,-87.668835,73,88,30,31,43,56,161,99,61
"89","13253","Lincoln Ave & Waveland Ave",41.948797,-87.675278,81,88,51,45,30,43,169,73,96
"90","13256","California Ave & Division St",41.903022885,-87.697563171,81,93,56,53,23,38,174,61,109
"91","13257","Campbell Ave & North Ave",41.910499,-87.6895885,126,115,85,83,40,29,241,69,168
"92","13258","California Ave & North Ave",41.9104051666667,-87.6971343333333,130,119,91,83,34,33,249,67,174
"93","13259","California Ave & Francis Pl (Temp)",41.9185301666667,-87.6974311666667,51,50,27,28,24,21,101,45,55
"94","13263","Columbus Dr & Randolph St",41.884728,-87.619521,624,452,158,138,460,310,1076,770,296
"95","13265","Kingsbury St & Erie St",41.893795729,-87.641872048,499,462,160,155,338,306,961,644,315
"96","13266","Stave St & Armitage Ave",41.9177346666667,-87.6914113333333,74,87,52,55,21,30,161,51,107
"97","13268","Damen Ave & Wellington Ave",41.93588,-87.67842,56,44,23,16,33,28,100,61,39
"98","13269","Ashland Ave & Wellington Ave",41.9360763333333,-87.6698096666667,153,149,56,50,95,96,302,191,106
"99","13271","Damen Ave & Clybourn Ave",41.9319173333333,-87.6777731666667,87,90,51,52,36,38,177,74,103
"100","13276","Stockton Dr & Wrightwood Ave",41.9313456666667,-87.6387443333333,230,255,94,98,133,155,485,288,192
"101","13277","Broadway & Belmont Ave",41.940106,-87.645451,253,276,67,64,185,209,529,394,131
"102","13278","Broadway & Cornelia Ave",41.945529,-87.646439,342,289,86,83,254,202,631,456,169
"103","13285","Wood St & Taylor St (Temp)",41.8692652184382,-87.6737308502197,248,253,95,97,152,156,501,308,192
"104","13288","Damen Ave & Charleston St",41.920082,-87.677855,112,114,49,49,58,59,226,117,98
"105","13289","Eckhart Park",41.89637337,-87.66098386,184,161,67,71,109,88,345,197,138
"106","13290","Noble St & Milwaukee Ave",41.90068,-87.6626,212,185,70,69,138,115,397,253,139
"107","13292","Kedzie Ave & Palmer Ct",41.921577334,-87.707374454,107,90,63,56,36,32,197,68,119
"108","13294","Greenview Ave & Diversey Pkwy",41.9325896342979,-87.6659363508224,126,126,61,58,60,66,252,126,119
"109","13296","Ashland Ave & Wrightwood Ave",41.92883,-87.668507,111,134,43,47,68,86,245,154,90
"110","13300","DuSable Lake Shore Dr & Monroe St",41.880958,-87.616743,328,264,71,54,200,190,592,390,125
"111","13303","Clark St & Chicago Ave",41.8966685,-87.630732,271,275,74,71,193,203,546,396,145
"112","13304","Racine Ave & 15th St",41.861267,-87.656625,78,52,37,31,41,20,130,61,68
"113","13307","Laflin St & Cullerton St",41.8549145757657,-87.6635599136353,58,70,39,41,19,29,128,48,80
"114","13319","Ashland Ave & Grace St",41.950732827,-87.668733239,141,126,50,57,91,69,267,160,107
"115","13323","Broadway & Sheridan Rd",41.952833,-87.649993,335,247,91,85,237,161,582,398,176
"116","13325","Broadway & Waveland Ave",41.949074,-87.648636,435,394,127,125,303,268,829,571,252
"117","13326","Canal St & Harrison St",41.874255,-87.639573,91,72,14,14,75,58,163,133,28
"118","13331","May St & Cullerton St",41.855136,-87.654127,54,55,18,18,36,35,109,71,36
"119","13332","Loomis St & Lexington St",41.872187,-87.661501,560,510,146,134,412,375,1070,787,280
"120","13338","Mies van der Rohe Way & Chicago Ave",41.896945,-87.621758,382,411,120,121,257,285,793,542,241
"121","13341","Canal St & Madison St",41.882091,-87.639833,543,561,182,182,350,374,1104,724,364
"122","13345","Calumet Ave & 35th St",41.831379,-87.618034,48,54,9,9,35,41,102,76,18
"123","13353","Ada St & Washington Blvd",41.88283,-87.661206,192,201,69,66,122,135,393,257,135
"124","13354","Ashland Ave & 13th St",41.865234,-87.666507,71,90,18,23,53,66,161,119,41
"125","13379","Clarendon Ave & Gordon Ter",41.957843184,-87.64960897,307,264,99,97,208,165,571,373,196
"126","13389","Clarendon Ave & Junior Ter",41.961004,-87.649603,198,190,81,78,117,110,388,227,159
"127","13398","Blackstone Ave & Hyde Park Blvd",41.802572966,-87.590224028,119,93,18,17,96,75,212,171,35
"128","13409","Sangamon St & Washington Blvd",41.883165,-87.6511,203,195,71,75,131,119,398,250,146
"129","13420","MLK Jr Dr & Pershing Rd",41.8246,-87.61678,14,16,6,6,8,9,30,17,12
"130","13427","Cityfront Plaza Dr & Pioneer Ct",41.890573,-87.622072,383,299,118,102,254,191,682,445,220
"131","13430","LaSalle St & Illinois St",41.890892625,-87.631486416,429,448,180,180,246,264,877,510,360
"132","13431","Adler Planetarium",41.866095,-87.607267,101,94,16,15,71,64,195,135,31
"133","13432","Wood St & Hubbard St",41.889899,-87.671473,93,90,40,34,53,56,183,109,74
"134","13434","Ashland Ave & Grand Ave",41.891072,-87.666611,161,135,62,53,99,82,296,181,115
"135","15442","Ashland Ave & Archer Ave",41.839239,-87.6657141666667,21,23,12,13,7,9,44,16,25
"136","15443","Shields Ave & 28th Pl",41.842733,-87.635491,55,43,11,3,44,40,98,84,14
"137","15445","Wentworth Ave & 33rd St",41.834539533,-87.63178277,72,93,10,10,61,83,165,144,20
"138","15446","Racine Ave & 35th St",41.8307141666667,-87.6561963333333,33,23,8,9,25,14,56,39,17
"139","15449","State St & Pershing Rd",41.823046923,-87.626569748,5,8,4,7,1,1,13,2,11
"140","15470","Calumet Ave & 51st St",41.8023025,-87.6180931666667,16,20,8,8,8,12,36,20,16
"141","15491","63rd St Beach",41.780910964248,-87.5763237476349,16,15,3,1,13,14,31,27,4
"142","15529","Mies van der Rohe Way & Chestnut St",41.898557663,-87.621880531,277,296,82,84,188,207,573,395,166
"143","15530","Rush St & Superior St",41.8957296666667,-87.6258291666667,347,380,153,152,191,228,727,419,305
"144","15534","Field Blvd & South Water St",41.8860973333333,-87.6177625,199,212,92,97,100,113,411,213,189
"145","15535","Desplaines St & Randolph St",41.88461618962,-87.6445705849,245,273,102,106,141,166,518,307,208
"146","15539","Desplaines St & Jackson Blvd",41.8781189009123,-87.6439476013184,367,371,162,163,203,204,738,407,325
"147","15541","Buckingham Fountain",41.8765351944122,-87.62047290802,46,40,17,19,23,14,86,37,36
"148","15542","Clinton St & Polk St",41.87146651779,-87.6409491327,21,17,3,2,18,15,38,33,5
"149","15544","Shedd Aquarium",41.86722595682,-87.6153553902,209,191,45,41,121,116,400,237,86
"150","15545","Burnham Harbor",41.856268,-87.613348,137,143,19,21,111,115,280,226,40
"151","15546","Calumet Ave & 21st St",41.8540905,-87.619159,49,68,28,29,21,38,117,59,57
"152","15550","Canal St & Taylor St",41.870257,-87.639474,162,174,80,82,80,89,336,169,162
"153","15571","Broadway & Granville Ave",41.9947796884,-87.6602845349,130,145,38,41,89,99,275,188,79
"154","15575","Broadway & Thorndale Ave",41.98974251144,-87.6601406209,142,155,59,60,83,93,297,176,119
"155","15576","Lakefront Trail & Bryn Mawr Ave",41.9840441151921,-87.6522812247276,3,7,0,0,3,6,10,9,0
"156","15578","Broadway & Ridge Ave",41.9840446107,-87.6602738295,165,147,56,56,105,89,312,194,112
"157","15585","Budlong Woods Library",41.983693,-87.6963971666667,38,40,26,27,12,13,78,25,53
"158","15615","Christiana Ave & Lawrence Ave",41.96835449363,-87.7118306675,35,42,16,17,17,23,77,40,33
"159","15621","Albany Ave & Montrose Ave",41.961041,-87.705866,56,43,37,25,18,17,99,35,62
"160","15622","California Ave & Montrose Ave",41.961068,-87.695439,61,57,38,39,23,18,118,41,77
"161","15623","Campbell Ave & Montrose Ave",41.96152593287,-87.6911650414,120,114,76,79,44,34,234,78,155
"162","15624","Avondale Ave & Irving Park Rd",41.953393,-87.732002,41,39,22,22,19,17,80,36,44
"163","15628","California Ave & Byron St",41.95216219326,-87.698051113,55,50,34,34,20,16,105,36,68
"164","15631","Troy St & Elston Ave",41.9452421666667,-87.7066273333333,48,60,30,35,18,25,108,43,65
"165","15632","Talman Ave & Addison St",41.9466576666667,-87.6946306666667,85,78,51,45,34,33,163,67,96
"166","15634","Western Ave & Roscoe St",41.943034,-87.687288,40,43,16,15,23,28,83,51,31
"167","15640","Avers Ave & Belmont Ave",41.9393563333333,-87.7235781666667,54,60,37,35,15,17,114,32,72
"168","15642","California Ave & Fletcher St",41.93842879148,-87.698007756,43,45,21,24,22,20,88,42,45
"169","15643","Kosciuszko Park",41.93058537138,-87.7237773635,31,24,16,14,15,10,55,25,30
"170","15644","Central Park Ave & Elbridge Ave",41.9353425,-87.7168986666667,64,58,45,45,19,13,122,32,90
"171","15645","Richmond St & Diversey Ave",41.9319785,-87.701224,56,33,26,22,30,11,89,41,48
"172","15646","California Ave & Altgeld St",41.92668128,-87.69782722,79,82,58,55,20,25,161,45,113
"173","15648","Campbell Ave & Fullerton Ave",41.924614,-87.6893255,71,67,40,41,31,26,138,57,81
"174","15650","Spaulding Ave & Armitage Ave",41.9171080347893,-87.7102209627628,68,61,31,31,36,30,129,66,62
"175","15651","Humboldt Blvd & Armitage Ave",41.9175121666667,-87.7017543333333,81,73,49,47,30,22,154,52,96
"176","15652","Central Park Ave & North Ave",41.9095996666667,-87.7166253333333,40,32,26,26,9,5,72,14,52
"177","15653","Troy St & North Ave",41.9098196666667,-87.7053175,96,79,70,57,26,22,175,48,127
"178","15654","Spaulding Ave & Division St",41.902706742,-87.709261417,39,35,25,26,14,9,74,23,51
"179","15655","Albany Ave & Bloomingdale Ave",41.91402671273,-87.705126462,104,98,72,70,32,28,202,60,142
"180","15664","Artesian Ave & Hubbard St",41.88949181977,-87.6882193648,125,119,91,88,33,30,244,63,179
"181","15666","California Ave & Lake St",41.8844295,-87.6962588333333,18,16,15,14,3,2,34,5,29
"182","15667","Western Ave & Monroe St",41.879788,-87.686113,45,42,23,23,18,17,87,35,46
"183","15668","Western Ave & Congress Pkwy",41.874654,-87.68637,105,96,76,70,27,26,201,53,146
"184","15682","Kedzie Ave & Roosevelt Rd",41.866554379,-87.706465602,1,4,1,1,0,0,5,0,2
"185","15685","Central Park Ave & Ogden Ave",41.8540635038745,-87.7151173353195,26,19,9,4,17,15,45,32,13
"186","15686","Kedzie Ave & 21st St",41.853534,-87.705073,5,1,2,0,2,1,6,3,0
"187","15687","Central Park Ave & 24th St",41.8481,-87.715068,0,0,0,0,0,0,0,0,0
"188","15689","California Ave & 23rd Pl",41.84910969176,-87.6951398068,17,15,8,7,9,7,32,16,15
"189","15691","Albany Ave & 26th St",41.84455049,-87.702010155,2,4,1,3,1,1,6,2,4
"190","15692","California Ave & 26th St",41.8436896666667,-87.6949431666667,8,6,5,4,3,2,14,5,9
"191","16010","Keystone Ave & Fullerton Ave",41.92459,-87.72785,18,18,9,9,8,8,36,16,18
"192","16806","Bosworth Ave & Howard St",42.0195248333333,-87.669437,10,9,2,3,8,6,19,14,5
"193","16903","Cicero Ave & Lake St",41.886841,-87.745261,8,6,3,4,4,1,14,5,7
"194","16905","Central Ave & Lake St",41.887664,-87.765469,3,2,0,0,2,2,5,4,0
"195","16906","Austin Blvd & Lake St",41.888073,-87.77432,10,7,3,2,7,5,17,12,5
"196","16907","Central Park Blvd & 5th Ave",41.875679,-87.71547,2,0,0,0,2,0,0,0,0
"197","16912","Cicero Ave & Flournoy St",41.872131,-87.746619,1,1,0,0,1,1,2,2,0
"198","16913","Cicero Ave & Quincy St",41.877613,-87.745405,1,1,0,0,0,0,2,0,0
"199","16915","Central Ave & Harrison St",41.872993,-87.764499,2,2,0,0,2,2,4,4,0
"200","16916","Central Ave & Madison St",41.880121,-87.763238,0,0,0,0,0,0,0,0,0
"201","16918","Austin Blvd & Madison St",41.880281,-87.774453,4,4,0,0,4,3,8,7,0
"202","16920","Central Ave & Chicago Ave",41.8949708333333,-87.7649376666667,14,5,7,2,5,3,19,8,9
"203","16921","Austin Blvd & Chicago Ave",41.894887,-87.774704,2,2,0,0,2,1,4,3,0
"204","16932","Ashland Ave & Pershing Rd",41.823465,-87.665577,10,4,1,1,9,3,14,12,2
"205","16933","Morgan St & Pershing Rd",41.823613,-87.650931,5,15,2,3,1,12,20,13,5
"206","16937","Ashland Ave & McDowell Ave",41.80887,-87.66454,7,11,6,6,1,5,18,6,12
"207","16940","Ashland Ave & 50th St",41.8030466666667,-87.6646855,2,2,1,1,1,1,4,2,2
"208","16948","Ashland Ave & 63rd St",41.7793695,-87.6649118333333,4,3,1,0,3,3,7,6,0
"209","16950","Ashland Ave & 66th St",41.774074,-87.663815,0,0,0,0,0,0,0,0,0
"210","16953","Vincennes Ave & 75th St",41.75797,-87.63121,3,3,0,0,3,3,6,6,0
"211","16970","Bennett Ave & 79th St",41.751785,-87.578496,0,0,0,0,0,0,0,0,0
"212","16991","Milwaukee Ave & Cuyler Ave",41.954468,-87.749594,9,7,4,3,4,3,16,7,7
"213","16994","Kilbourn Ave & Milwaukee Ave",41.9470708941847,-87.7400082349777,1,4,0,0,1,2,5,3,0
"214","17660","California Ave & Cortez St",41.900299191,-87.696992397,137,131,100,95,36,34,268,70,195
"215","18003","Fairbanks St & Superior St",41.895748,-87.620104,314,308,119,123,193,181,622,374,242
"216","18016","Bernard St & Elston Ave",41.949923,-87.713949,43,46,27,28,16,18,89,34,55
"217","18017","Central Park Ave & Bloomingdale Ave",41.914166,-87.716755,57,59,14,14,40,43,116,83,28
"218","18022","Archer (Damen) Ave & 37th St",41.826712,-87.683144,7,9,3,4,4,4,16,8,7
"219","18058","Leavitt St & Chicago Ave",41.895501,-87.682017,149,150,91,80,58,67,299,125,171
"220","18062","Aberdeen St & Randolph St",41.8841655,-87.6542751666667,224,252,105,106,118,146,476,264,211
"221","18067","Walsh Park",41.9146416666667,-87.6679263333333,191,139,59,43,128,93,330,221,102
"222","18069","Cherry Ave & Blackhawk St",41.9072526666667,-87.655603,51,46,20,20,31,26,97,57,40
"223","20.0","Damen Ave & Wabansia Ave",41.91,-87.68,57,44,57,44,0,0,101,0,101
"224","20101","Summit Ave & 86th St",41.7378548333333,-87.644856,1,2,1,2,0,0,3,0,3
"225","20102","Loomis St & 89th St",41.732555151,-87.658053994,8,3,6,2,1,0,11,0,8
"226","20103","Prospect Sq & 91st St",41.7279645,-87.6676576666667,4,5,4,4,0,0,9,0,8
"227","20104","State St & 95th St",41.7216341666667,-87.6229041666667,11,9,5,4,6,5,20,11,9
"228","20105","Halsted St & 96th St",41.719706893,-87.642690778,5,5,3,1,1,4,10,5,4
"229","20106","Chicago State University",41.7189634216545,-87.6082956790924,21,13,11,9,10,4,34,14,20
"230","20107","Walden Pkwy & 100th St",41.7122093333333,-87.6677093333333,3,2,3,2,0,0,5,0,5
"231","20108","Hale Ave & 107th St",41.699223,-87.6688353333333,5,4,5,2,0,0,9,0,7
"232","20109","Vernon Ave & 107th St",41.7001213792389,-87.6122599840164,0,0,0,0,0,0,0,0,0
"233","20110","Eberhart Ave & 91st St",41.7292801666667,-87.6116885,4,3,3,2,1,1,7,2,5
"234","20111","Olive Harvey College",41.709532857,-87.590229869,8,6,8,6,0,0,14,0,14
"235","20112","Indiana Ave & 103rd St",41.7071702711776,-87.6184719800949,0,0,0,0,0,0,0,0,0
"236","20113","Dauphin Ave & 103rd St",41.7072503677818,-87.6076626777649,0,0,0,0,0,0,0,0,0
"237","20116","Dauphin Ave & 87th St",41.7364471666667,-87.6012673333333,3,1,3,1,0,0,4,0,4
"238","20118","Eggleston Ave & 92nd St",41.727711678,-87.634844184,1,2,1,1,0,0,3,0,2
"239","20119","Elizabeth St & 92nd St",41.7267989637012,-87.6542901992798,4,4,0,0,4,4,8,8,0
"240","20120","Stewart Ave & 83rd St",41.743717,-87.634088,2,4,0,0,2,4,6,6,0
"241","20121","Loomis Blvd & 84th St",41.7415375,-87.6584391666667,2,1,2,1,0,0,3,0,3
"242","20123","Western Ave & 104th St",41.7045871021891,-87.6812034845352,3,4,0,0,3,4,7,7,0
"243","20124","Vincennes Ave & 104th St",41.7049255649976,-87.6568681095887,6,4,5,3,1,1,10,2,8
"244","20125","Halsted St & 104th St",41.705201,-87.6424285,2,4,2,3,0,0,6,0,5
"245","20126","S Aberdeen St & W 106th St",41.7,-87.65,6,1,6,1,0,0,7,0,7
"246","20127","Halsted St & 111th St",41.6922625558917,-87.6426118612289,5,4,3,3,2,1,9,3,6
"247","20128","S Wentworth Ave & W 111th St",41.69,-87.63,3,2,3,2,0,0,5,0,5
"248","20129","Ada St & 113th St",41.6875733333333,-87.6553951666667,6,3,6,3,0,0,9,0,9
"249","20131","Cottage Grove Ave & 111th Pl",41.691659,-87.6099871666667,2,1,2,1,0,0,3,0,3
"250","20134","Maryland Ave & 104th St",41.71,-87.6,0,0,0,0,0,0,0,0,0
"251","20201","Kedzie Ave & 104th St",41.7,-87.7,2,0,2,0,0,0,0,0,0
"252","20202","W 103rd St & S Avers Ave",41.71,-87.72,4,3,4,3,0,0,7,0,7
"253","20203","Lawndale Ave & 111th St",41.6913191922107,-87.7128857374191,2,2,1,0,1,2,4,3,0
"254","20204","Kedzie Ave & 110th St",41.6923947458756,-87.7009606361389,4,2,0,0,4,2,6,6,0
"255","20205","Western Ave & 111th St",41.691211034981,-87.6812973618507,2,0,0,0,2,0,0,0,0
"256","20206","Homewood Ave & 115th St",41.6845751666667,-87.67083,3,2,3,2,0,0,5,0,5
"257","20207","Major Taylor Trail & 115th St",41.684931595193,-87.6452887058258,6,4,4,3,2,1,10,3,7
"258","20208","Major Taylor Trail & 124th St",41.6687063333333,-87.6371653333333,1,1,1,1,0,0,2,0,2
"259","20209","S Michigan Ave & E 118th St",41.68,-87.62,5,0,5,0,0,0,0,0,0
"260","20210","State St & 123rd St",41.6706501666667,-87.6227146666667,2,3,2,3,0,0,5,0,5
"261","20211","Eberhart Ave & 131st St",41.657926,-87.6107618333333,3,3,2,2,0,0,6,0,4
"262","20212","Altgeld Gardens",41.657066107,-87.598819017,2,1,2,1,0,0,3,0,3
"263","20213","Commercial Ave & 130th St",41.6591693333333,-87.5507393333333,3,4,2,2,1,2,7,3,4
"264","20214","Avenue O & 134th St",41.6519298333333,-87.5395791666667,1,0,1,0,0,0,0,0,0
"265","20215","Hegewisch Metra Station",41.6486126666667,-87.5462311666667,1,0,1,0,0,0,0,0,0
"266","20217","Torrence Ave & 126th Pl",41.6663120082573,-87.5572156906128,1,0,0,0,1,0,0,0,0
"267","20218","Avenue O & 118th St",41.6810014591104,-87.5379312226869,1,1,0,0,1,1,2,2,0
"268","20219","Burnham Greenway & 112th St",41.6917738511683,-87.5304311513901,2,1,0,0,2,1,3,3,0
"269","20220","Avenue L & 114th St",41.69,-87.54,3,1,3,1,0,0,4,0,4
"270","20221","Torrence Ave & 106th St",41.7028608333333,-87.5599291666667,5,4,5,3,0,0,9,0,8
"271","20222","Burnham Greenway & 105th St",41.704649,-87.5284816666667,1,0,1,0,0,0,0,0,0
"272","20223","Ewing Ave & Burnham Greenway",41.7127101666667,-87.5346323333333,2,0,2,0,0,0,0,0,0
"273","20224","Calumet Park",41.71374619,-87.530786514,1,1,1,1,0,0,2,0,2
"274","20225","Commercial Ave & 100th St",41.713317,-87.551098,2,1,0,0,1,0,3,0,0
"275","20226","Oglesby Ave & 100th St",41.713323474,-87.565878749,2,0,2,0,0,0,0,0,0
"276","20228","Constance Ave & 95th St",41.7222907409526,-87.5789684057236,1,1,0,0,1,1,2,2,0
"277","20229","Baltimore Ave & 87th St",41.7373356004167,-87.5485146045685,1,1,0,0,1,1,2,2,0
"278","20230","Clyde Ave & 87th St",41.7371514643106,-87.572740316391,1,1,0,0,1,1,2,2,0
"279","20231","East End Ave & 87th St",41.736808062,-87.582810521,1,2,1,1,0,0,3,0,2
"280","20233","Halsted St & 78th St",41.7524870124901,-87.6439021574879,2,0,0,0,2,0,0,0,0
"281","20234","Ashland Ave & 78th St",41.7522048494112,-87.663699388504,3,1,1,0,2,1,4,3,0
"282","20235","Greenwood Ave & 91st St",41.7282642681627,-87.5972986221313,1,1,0,0,1,1,2,2,0
"283","20236","Stony Island Ave & 90th St",41.7313818333333,-87.5857981666667,3,3,3,3,0,0,6,0,6
"284","20238","Greenwood Ave & 97th St",41.7187031547574,-87.5970357656479,2,2,0,0,2,2,4,4,0
"285","20239","Marquette Ave & 89th St",41.7337695,-87.5586261666667,7,4,6,3,0,0,11,0,9
"286","20242","Houston Ave & 92nd St",41.728204215358,-87.5497001409531,2,1,1,1,1,0,3,0,2
"287","20243","Michigan Ave & 114th St",41.88335371,-87.649931192,3,4,3,3,0,0,7,0,6
"288","20245","Ashland Ave & 74th St",41.759139,-87.6634925,1,0,1,0,0,0,0,0,0
"289","20246.0","N Green St & W Lake St",41.89,-87.65,77,56,77,56,0,0,133,0,133
"290","20247.0","W Washington Blvd & N Peoria St",41.88,-87.65,16,2,16,2,0,0,18,0,18
"291","202480.0","Hampden Ct & Diversey Ave",41.93,-87.64,37,42,37,42,0,0,79,0,79
"292","20251.0","N Carpenter St & W Lake St",41.89,-87.65,41,31,41,31,0,0,72,0,72
"293","20252.0","W Oakdale Ave & N Broadway",41.94,-87.64,30,27,30,27,0,0,57,0,57
"294","20253.0","N Paulina St & Lincoln Ave",41.94,-87.67,7,7,7,7,0,0,14,0,14
"295","20254.0","W Armitage Ave & N Sheffield Ave",41.92,-87.65,45,44,45,44,0,0,89,0,89
"296","20255.0","N Damen Ave & W Chicago Ave",41.9,-87.68,6,9,6,9,0,0,15,0,15
"297","20256.0","N Sheffield Ave & W Wellington Ave",41.94,-87.65,19,15,19,15,0,0,34,0,34
"298","20257.0","N Southport Ave & W Newport Ave",41.94,-87.66,4,2,4,2,0,0,6,0,6
"299","20260.0","Ping Tom Park (East)",41.86,-87.63,1,0,1,0,0,0,0,0,0
"300","21544","State St & Chicago Ave",41.896586776,-87.628749132,209,195,64,64,137,124,404,261,128
"301","302","Lamon Ave & Chicago Ave",41.9,-87.75,6,1,6,1,0,0,7,0,7
"302","303","Kildare Ave & Division St",41.9,-87.73,2,2,2,2,0,0,4,0,4
"303","304","Lavergne Ave & Division St",41.9,-87.75,7,1,7,1,0,0,8,0,8
"304","305","Menard Ave & Division St",41.9,-87.77,2,0,2,0,0,0,0,0,0
"305","307","Leamington Ave & Hirsch St",41.91,-87.75,3,0,3,0,0,0,0,0,0
"306","308","Major Ave & Bloomingdale Ave",41.91,-87.77,1,0,1,0,0,0,0,0,0
"307","309","Narragansett & McLean",41.92,-87.79,4,3,4,3,0,0,7,0,7
"308","310","North Ave & New England Ave",41.91,-87.8,1,0,1,0,0,0,0,0,0
"309","312","Lockwood Ave & Wrightwood Ave",41.93,-87.76,7,6,7,6,0,0,13,0,13
"310","313","Long Ave & Belden Ave",41.92,-87.76,10,3,10,3,0,0,13,0,13
"311","314","Narragansett & Wrightwood",41.93,-87.79,4,2,4,2,0,0,6,0,6
"312","316","Lamon Ave & Belmont Ave",41.94,-87.75,31,27,31,27,0,0,58,0,58
"313","317","Long Ave & Belmont Ave",41.94,-87.76,6,2,6,2,0,0,8,0,8
"314","318","Oak Park & Wellington",41.93,-87.8,4,0,4,0,0,0,0,0,0
"315","319","Roscoe & Harlem",41.94,-87.81,3,0,3,0,0,0,0,0,0
"316","320","Orange & Addison",41.95,-87.82,3,4,3,4,0,0,7,0,7
"317","321","Kostner Ave & Wrightwood Ave",41.93,-87.74,7,6,7,6,0,0,13,0,13
"318","322","Cicero Ave & Grace St",41.95,-87.75,3,1,3,1,0,0,4,0,4
"319","323","Narragansett & Irving Park",41.95,-87.79,6,3,6,3,0,0,9,0,9
"320","324","Meade Ave & Addison St",41.95,-87.78,11,8,11,8,0,0,19,0,19
"321","326","Harlem & Irving Park",41.95,-87.81,4,1,4,1,0,0,5,0,5
"322","329.0","Central Park Ave & Douglas Blvd",41.86,-87.72,4,1,4,1,0,0,5,0,5
"323","330.0","Keeler Ave & Roosevelt Rd",41.87,-87.73,3,0,3,0,0,0,0,0,0
"324","331","Halsted St & Clybourn Ave",41.909668,-87.648128,355,352,130,117,220,230,707,450,247
"325","331.0","Pulaski Rd & 21st St",41.85,-87.72,7,7,7,7,0,0,14,0,14
"326","332.0","Harding Ave & 26th St",41.84,-87.72,3,1,3,1,0,0,4,0,4
"327","334.0","Lawndale Ave & 30th St",41.84,-87.72,3,1,3,1,0,0,4,0,4
"328","335.0","Komensky Ave & 31st St",41.84,-87.73,3,3,3,3,0,0,6,0,6
"329","336","La Villita Park (Albany/30th)",41.84,-87.7,0,0,0,0,0,0,0,0,0
"330","337","Hoyne Ave & 34th St",41.83,-87.68,2,0,2,0,0,0,0,0,0
"331","339","Sacramento Ave & Pershing Rd",41.82,-87.7,5,1,5,1,0,0,6,0,6
"332","340","Pulaski & Ann Lurie Pl",41.82,-87.72,6,2,6,2,0,0,8,0,8
"333","341","Archer Ave & 43rd St",41.82,-87.7,6,1,6,1,0,0,7,0,7
"334","342","Kedzie Ave & 45th St",41.81,-87.7,3,1,3,1,0,0,4,0,4
"335","343","Pulaski Rd & 51st St",41.8,-87.72,8,10,8,10,0,0,18,0,18
"336","344","Springfield Ave & 47th St",41.81,-87.72,3,0,3,0,0,0,0,0,0
"337","345","Artesian Ave & 55th St",41.79,-87.69,3,1,3,1,0,0,4,0,4
"338","346","Kedzie Ave & 57th St",41.79,-87.7,4,0,4,0,0,0,0,0,0
"339","347","Komensky Ave & 55th St",41.79,-87.72,1,1,1,1,0,0,2,0,2
"340","348","Western Ave & 62nd St",41.78,-87.68,1,0,1,0,0,0,0,0,0
"341","349","Spaulding Ave & 63rd St",41.78,-87.71,6,2,6,2,0,0,8,0,8
"342","350","Hamlin Ave & 62nd Pl",41.78,-87.72,5,3,5,3,0,0,8,0,8
"343","351","Mulligan Ave & Wellington Ave",41.93,-87.78,17,8,17,8,0,0,25,0,25
"344","352","Sayre & Diversey",41.93,-87.8,1,0,1,0,0,0,0,0,0
"345","353","Meade Ave & Diversey Ave",41.93,-87.78,4,0,4,0,0,0,0,0,0
"346","354","Parkside Ave & Armitage Ave",41.92,-87.77,2,0,2,0,0,0,0,0,0
"347","355","Central Ave & Parker Ave",41.93,-87.77,6,6,6,6,0,0,12,0,12
"348","356","Lavergne & Fullerton",41.92,-87.75,2,2,2,2,0,0,4,0,4
"349","357","Lamon Ave & Armitage Ave",41.92,-87.75,7,1,7,1,0,0,8,0,8
"350","358","Kilpatrick Ave & Parker Ave",41.93,-87.74,8,2,8,2,0,0,10,0,10
"351","359","Kilbourn & Belden",41.92,-87.74,9,4,9,4,0,0,13,0,13
"352","360","Kilbourn & Roscoe",41.94,-87.74,11,3,11,3,0,0,14,0,14
"353","361","Kenosha & Wellington",41.93,-87.73,2,1,2,1,0,0,3,0,3
"354","362.0","Lawndale Ave & 16th St",41.86,-87.72,4,0,4,0,0,0,0,0,0
"355","364.0","Homan Ave & Fillmore St",41.87,-87.71,5,0,5,0,0,0,0,0,0
"356","365.0","Kildare Ave & 26th St",41.84,-87.73,2,0,2,0,0,0,0,0,0
"357","366.0","Spaulding Ave & 16th St",41.86,-87.71,3,1,3,1,0,0,4,0,4
"358","367","Mayfield & Roosevelt Rd",41.87,-87.77,3,1,3,1,0,0,4,0,4
"359","368.0","Tripp Ave & 31st St",41.84,-87.73,4,1,4,1,0,0,5,0,5
"360","369","Central Park Ave & Ohio St",41.89,-87.72,6,3,6,3,0,0,9,0,9
"361","370","Central Park & Augusta Blvd",41.9,-87.72,12,6,12,6,0,0,18,0,18
"362","371","Kildare Ave & Chicago Ave",41.9,-87.73,1,0,1,0,0,0,0,0,0
"363","373","Augusta Blvd & Laramie Ave",41.9,-87.76,4,0,4,0,0,0,0,0,0
"364","374","Kilpatrick Ave & Grand Ave",41.91,-87.74,7,0,7,0,0,0,0,0,0
"365","376","Menard Ave & North Ave",41.91,-87.77,2,1,2,1,0,0,3,0,3
"366","377","Bloomingdale Ave & Harlem Ave",41.91,-87.81,0,0,0,0,0,0,0,0,0
"367","378","Nordica & Medill",41.92,-87.8,2,0,2,0,0,0,0,0,0
"368","379","Rockwell St & Archer Ave",41.82,-87.69,9,5,9,5,0,0,14,0,14
"369","380","Fairfield Ave & 44th St",41.81,-87.69,1,0,1,0,0,0,0,0,0
"370","381","Francisco Ave & 47th St",41.81,-87.7,14,11,14,11,0,0,25,0,25
"371","382","Kedzie Ave & 48th Pl",41.8,-87.7,3,2,3,2,0,0,5,0,5
"372","383","Campbell Ave & 51st St",41.8,-87.69,0,0,0,0,0,0,0,0,0
"373","384","Kedzie Ave & 52nd St",41.8,-87.7,2,1,2,1,0,0,3,0,3
"374","385","St Louis Ave & Norman Bobbins Ave",41.79,-87.71,1,0,1,0,0,0,0,0,0
"375","386","Rockwell St & 57th St",41.79,-87.69,1,0,1,0,0,0,0,0,0
"376","387","St Louis Ave & 59th St",41.79,-87.71,7,3,7,3,0,0,10,0,10
"377","390","California Ave & Marquette Rd",41.77,-87.69,2,1,2,1,0,0,3,0,3
"378","393","Oketo Ave & Addison St",41.95,-87.81,1,0,1,0,0,0,0,0,0
"379","394","Panama Ave & Grace St",41.95,-87.83,2,0,2,0,0,0,0,0,0
"380","396","Central Ave & Roscoe St",41.94,-87.77,13,7,13,7,0,0,20,0,20
"381","397","Narragansett Ave & School St",41.94,-87.79,5,1,5,1,0,0,6,0,6
"382","398","Long & Irving Park",41.95,-87.76,10,5,10,5,0,0,15,0,15
"383","399","Lavergne Ave & 46th St",41.81,-87.75,10,9,10,9,0,0,19,0,19
"384","400","Lawler Ave & 50th St",41.8,-87.75,2,1,2,1,0,0,3,0,3
"385","401","Kildare Ave & 47th St",41.81,-87.73,1,0,1,0,0,0,0,0,0
"386","402","Kenneth Ave & 50th St",41.8,-87.73,1,1,1,1,0,0,2,0,2
"387","403","Kildare Ave & 55th St",41.79,-87.73,2,2,2,2,0,0,4,0,4
"388","404","Pulaski Rd & 60th St",41.78,-87.72,2,0,2,0,0,0,0,0,0
"389","406","Kostner Ave & 63rd St",41.78,-87.73,1,0,1,0,0,0,0,0,0
"390","407","Tripp Ave & 65th St",41.77,-87.73,2,2,2,2,0,0,4,0,4
"391","414","Sacramento Blvd & Fulton Ave",41.89,-87.7,5,1,5,1,0,0,6,0,6
"392","416","Washtenaw Ave & Madison St",41.88,-87.69,0,0,0,0,0,0,0,0,0
"393","418","Mozart St & Jackson Blvd",41.88,-87.7,2,0,2,0,0,0,0,0,0
"394","419","Sacramento Blvd & Polk St",41.87,-87.7,2,0,2,0,0,0,0,0,0
"395","420","Washtenaw Ave & Polk St",41.87,-87.69,5,5,5,5,0,0,10,0,10
"396","422","Albany Ave & 16th St",41.86,-87.7,0,0,0,0,0,0,0,0,0
"397","425","Rockwell St & Cermak Rd",41.85,-87.69,18,10,18,10,0,0,28,0,28
"398","426","California & 16th St",41.86,-87.7,1,1,1,1,0,0,2,0,2
"399","427","Whipple St & Roosevelt Rd",41.87,-87.7,1,0,1,0,0,0,0,0,0
"400","428","Milwaukee Ave & Fullerton Ave",41.92,-87.7,31,20,31,20,0,0,51,0,51
"401","429","Francisco Ave & Bloomingdale Ave",41.91,-87.7,8,3,8,3,0,0,11,0,11
"402","430","Troy St & Grace St",41.95,-87.71,12,4,12,4,0,0,16,0,16
"403","431","Western Ave & Grace St",41.95,-87.69,8,6,8,6,0,0,14,0,14
"404","432","Sacramento Blvd & Addison St",41.95,-87.7,15,11,15,11,0,0,26,0,26
"405","433","Elston Ave & Henderson St",41.94,-87.7,9,7,9,7,0,0,16,0,16
"406","434","Albany Ave & Belmont Ave",41.94,-87.71,13,4,13,4,0,0,17,0,17
"407","435","Rockwell St & Fletcher St",41.94,-87.69,13,9,13,9,0,0,22,0,22
"408","436","Kedzie Ave & George St",41.93,-87.71,31,21,31,21,0,0,52,0,52
"409","441","Virginia Ave & Catalpa Ave",41.98,-87.7,5,0,5,0,0,0,0,0,0
"410","442","Lincoln Ave & Balmoral Ave",41.98,-87.69,11,6,11,6,0,0,17,0,17
"411","443","California Ave & Winona St",41.97,-87.7,9,11,9,11,0,0,20,0,20
"412","444","N Shore Channel Trail & Argyle St",41.97,-87.7,10,3,10,3,0,0,13,0,13
"413","445","Western Ave & Gunnison St",41.97,-87.69,6,6,6,6,0,0,12,0,12
"414","446","Francisco Ave & Montrose Ave",41.96,-87.7,8,4,8,4,0,0,12,0,12
"415","452","Richmond St & Lincoln Ave",41.99,-87.7,5,6,5,6,0,0,11,0,11
"416","458","Washtenaw Ave & Peterson Ave",41.99,-87.7,5,1,5,1,0,0,6,0,6
"417","460","Francisco Ave & Hollywood Ave",41.98,-87.7,1,0,1,0,0,0,0,0,0
"418","462","Lincoln Ave & Peterson Ave",41.99,-87.71,3,2,3,2,0,0,5,0,5
"419","464","Western Ave & Ardmore Ave",41.99,-87.69,10,7,10,7,0,0,17,0,17
"420","466","California Ave & 29th St",41.84,-87.69,1,1,1,1,0,0,2,0,2
"421","471","Damen Ave & 33rd St",41.83,-87.68,4,2,4,2,0,0,6,0,6
"422","472","Elston Ave & George St",41.93,-87.69,6,3,6,3,0,0,9,0,9
"423","473","Mason Ave & Belmont Ave",41.94,-87.77,2,0,2,0,0,0,0,0,0
"424","474","Fullerton & Monitor",41.92,-87.77,13,7,13,7,0,0,20,0,20
"425","475","Whipple/Irving Park",41.95,-87.7,14,5,14,5,0,0,19,0,19
"426","514","Ridge Blvd & Howard St",42.019276,-87.68452,36,24,5,5,31,19,60,50,10
"427","515","Paulina St & Howard St",42.019159,-87.673573,79,86,17,15,60,71,165,131,32
"428","517","Clark St & Jarvis Ave",42.015963,-87.675005,29,19,4,3,23,16,48,39,7
"429","518","Conservatory Dr & Lake St",41.885519862,-87.716881156,22,15,12,12,10,3,37,13,24
"430","519","Wolcott Ave & Fargo Ave",42.016977,-87.677725,9,10,5,6,4,4,19,8,11
"431","520","Greenview Ave & Jarvis Ave",42.015962,-87.66857,84,76,13,13,71,63,160,134,26
"432","523","Eastlake Ter & Rogers Ave",42.020955682,-87.665013909,54,52,26,25,28,27,106,55,51
"433","525","Glenwood Ave & Touhy Ave",42.012701,-87.666058,55,48,5,5,50,43,103,93,10
"434","527","Western Ave & Howard St",42.0189263333333,-87.6900115,23,23,9,9,14,14,46,28,18
"435","528","Pulaski Rd & Lake St",41.8852891666667,-87.7266893333333,5,4,4,3,1,1,9,2,7
"436","530","Laramie Ave & Kinzie St",41.887832,-87.755527,1,0,0,0,1,0,0,0,0
"437","535","Pulaski Rd & Congress Pkwy",41.874325,-87.725704,7,5,3,3,4,2,12,6,6
"438","536","Kostner Ave & Lake St",41.885928,-87.73541,1,0,0,0,1,0,0,0,0
"439","540","Laramie Ave & Madison St",41.8802238333333,-87.755429,1,1,1,1,0,0,2,0,2
"440","546","Damen Ave & Pershing Rd",41.823204398,-87.676596403,12,13,11,9,1,4,25,5,20
"441","549","Marshfield Ave & 44th St",41.8140218333333,-87.6666981666667,26,26,26,21,0,0,52,0,47
"442","553","Elizabeth St & 47th St",41.8083581666667,-87.6565753333333,2,2,1,0,1,2,4,3,0
"443","559","Racine Ave & Garfield Blvd",41.794228,-87.655073,1,1,0,0,0,0,2,0,0
"444","560","Marshfield Ave & 59th St",41.7868343333333,-87.666118,2,0,1,0,1,0,0,0,0
"445","562","Racine Ave & 61st St",41.783189,-87.654372,2,4,0,0,1,0,6,0,0
"446","564","Racine Ave & 65th St",41.775393,-87.654308,3,2,0,0,1,1,5,2,0
"447","567","May St & 69th St",41.768938,-87.652934,10,8,4,4,6,4,18,10,8
"448","570","Evans Ave & 75th St",41.75849,-87.60641,0,0,0,0,0,0,0,0,0
"449","571","Vernon Ave & 75th St",41.758361,-87.614138,3,1,0,0,1,0,4,0,0
"450","572","State St & 76th St",41.756971,-87.624621,0,0,0,0,0,0,0,0,0
"451","573","State St & 79th St",41.750794,-87.624424,11,12,6,6,3,1,23,4,12
"452","574","Vernon Ave & 79th St",41.75094,-87.61379,5,2,1,0,3,1,7,4,0
"453","575","Cottage Grove Ave & 78th St",41.753174,-87.605026,2,0,0,0,2,0,0,0,0
"454","576","Greenwood Ave & 79th St",41.751294,-87.597552,0,0,0,0,0,0,0,0,0
"455","577","Stony Island Ave & South Chicago Ave",41.751173,-87.585337,3,2,0,0,3,2,5,5,0
"456","579","Phillips Ave & 79th St",41.75182,-87.565211,3,2,2,2,0,0,5,0,4
"457","580","Exchange Ave & 79th St",41.751737356,-87.552854538,6,4,3,2,3,2,10,5,5
"458","582","Phillips Ave & 83rd St",41.744531,-87.56506,3,2,2,2,1,0,5,0,4
"459","583","Stony Island Ave & 82nd St",41.7465688333333,-87.5860061666667,1,0,1,0,0,0,0,0,0
"460","584","Ellis Ave & 83rd St",41.744123,-87.599034,2,0,0,0,2,0,0,0,0
"461","585","Cottage Grove Ave & 83rd St",41.743441,-87.604836,4,1,1,1,3,0,5,0,2
"462","587","Wabash Ave & 83rd St",41.743316,-87.622849,1,0,0,0,1,0,0,0,0
"463","588","South Chicago Ave & 83rd St",41.743921,-87.575225,0,0,0,0,0,0,0,0,0
"464","590","Kilbourn Ave & Irving Park Rd",41.953696132,-87.740587831,6,3,4,1,2,2,9,4,5
"465","592","Knox Ave & Montrose Ave",41.960631,-87.745359,10,12,7,6,3,4,22,7,13
"466","593","Halsted St & 59th St",41.787539,-87.644874,2,2,0,0,2,2,4,4,0
"467","594","Western Blvd & 48th Pl",41.8056633333333,-87.6833701666667,6,3,4,1,2,2,9,4,5
"468","595","Wabash Ave & 87th St",41.736646,-87.622634,6,3,4,2,2,1,9,3,6
"469","596","Benson Ave & Church St",42.048214,-87.683485,156,162,35,34,116,127,318,243,69
"470","598","Elmwood Ave & Austin St",42.025762796,-87.68411994,21,28,13,16,8,12,49,20,29
"471","599","Valli Produce - Evanston Plaza",42.0396598333333,-87.6994573333333,26,29,17,18,9,11,55,20,35
"472","600","Dodge Ave & Church St",42.04835403,-87.698500991,22,19,6,6,16,12,41,28,12
"473","604","Sheridan Rd & Noyes St (NU)",42.058239,-87.677432,186,188,37,38,148,144,374,292,75
"474","605","University Library (NU)",42.052939,-87.673447,100,106,17,17,83,89,206,172,34
"475","620","Orleans St & Chestnut St (NEXT Apts)",41.8981006666667,-87.6375601666667,243,202,82,76,160,125,445,285,158
"476","623","Michigan Ave & 8th St",41.872596741,-87.624089003,250,232,60,62,168,151,482,319,122
"477","624","Dearborn St & Van Buren St",41.876268,-87.629155,294,216,69,63,214,143,510,357,132
"478","631","Malcolm X College Vaccination Site",41.877618,-87.673895,27,22,12,11,15,11,49,26,23
"479","632","Clark St & Newport St",41.944519401,-87.654810905,294,272,92,77,198,195,566,393,169
"480","636","Orleans St & Hubbard St",41.890028,-87.636618,280,291,108,108,172,183,571,355,216
"481","637","Wood St & Chicago Ave",41.895678043,-87.67234087,190,171,83,72,107,98,361,205,155
"482","638","Clinton St & Jackson Blvd",41.8783166118307,-87.6409810781479,698,587,241,217,453,366,1285,819,458
"483","639","Lakefront Trail & Wilson Ave",41.965845,-87.645361,59,56,14,12,40,37,115,77,26
"484","642","Latrobe Ave & Chicago Ave",41.894745,-87.756895,0,0,0,0,0,0,0,0,0
"485","643","Smith Park",41.892051458,-87.689400196,54,58,46,47,8,10,112,18,93
"486","644","Western Ave & Fillmore St",41.868655,-87.6862425,130,127,109,106,21,18,257,39,215
"487","646","State St & 54th St",41.796642,-87.625923,2,2,1,1,1,1,4,2,2
"488","647","Elizabeth St & 59th St",41.789697,-87.654698,2,0,0,0,0,0,0,0,0
"489","649","Stewart Ave & 63rd St",41.779835,-87.634774,1,4,0,0,1,4,5,5,0
"490","650","Eggleston Ave & 69th St",41.768898,-87.635876,3,1,1,0,2,1,4,3,0
"491","651","Michigan Ave & 71st St",41.765286,-87.621748,6,7,0,0,6,6,13,12,0
"492","653","Cornell Dr & Hayes Dr",41.780595,-87.584846,0,0,0,0,0,0,0,0,0
"493","654","Racine Ave & Washington Blvd",41.883073,-87.656952,132,150,65,66,65,83,282,148,131
"494","655","Hoyne Ave & Balmoral Ave",41.979851,-87.681932,54,59,39,38,15,21,113,36,77
"495","657","Wood St & Augusta Blvd",41.8991306666667,-87.6721845,99,81,38,38,61,43,180,104,76
"496","658","Leavitt St & Division St",41.902997,-87.683825,139,110,77,56,62,54,249,116,133
"497","660","Sheridan Rd & Columbia Ave",42.004583,-87.661406,45,62,25,25,20,37,107,57,50
"498","661","Evanston Civic Center",42.057044,-87.686554,30,26,9,9,21,15,56,36,18
"499","662","Dodge Ave & Mulford St",42.023463,-87.699595,6,3,0,0,6,3,9,9,0
"500","665","South Chicago Ave & Elliot Ave",41.7473323333333,-87.5799816666667,1,0,1,0,0,0,0,0,0
"501","E002","Chicago Ave & Washington St",42.032562,-87.679101,71,70,30,28,40,42,141,82,58
"502","E006","Central St Metra",42.063598,-87.69873,33,32,15,13,15,18,65,33,28
"503","E007","Central St & Girard Ave",42.0642668333333,-87.686169,11,14,7,8,4,6,25,10,15
"504","E008","Chicago Ave & Sheridan Rd",42.050491,-87.677821,155,143,39,34,115,108,298,223,73
"505","E011","Dodge Ave & Main St",42.034891129,-87.699016452,6,6,4,5,2,1,12,3,9
"506","E014","Lincolnwood Dr & Central St",42.064854,-87.715297,3,6,0,0,3,5,9,8,0
"507","Hubbard Bike-checking (LBS-WH-TEST)","Base - 2132 W Hubbard Warehouse",41.9356166666667,-87.64405,53,9,53,7,0,0,62,0,60
"508","KA1503000001","Shields Ave & 43rd St",41.81620767856,-87.6348193497,0,0,0,0,0,0,0,0,0
"509","KA1503000002","South Shore Dr & 71st St",41.7664094567,-87.5656875719,13,11,6,6,7,5,24,12,12
"510","KA1503000003","Cottage Grove Ave & 71st St",41.76571903697,-87.604959713,2,2,0,0,2,2,4,4,0
"511","KA1503000004","Lake Park Ave & 35th St",41.83127423549,-87.6087991946,14,14,4,5,10,9,28,19,9
"512","KA1503000005","Wentworth Ave & 35th St",41.830777,-87.632504,40,30,21,15,18,15,70,33,36
"513","KA1503000007","Cornell Ave & Hyde Park Blvd",41.802406,-87.586924,237,203,30,24,202,178,440,380,54
"514","KA1503000009","Princeton Ave & 47th St",41.80931770924,-87.633449288,19,14,4,0,15,14,33,29,0
"515","KA1503000010","Halsted St & 51st St",41.80183164049,-87.645213904,2,1,1,0,1,1,3,2,0
"516","KA1503000011","Halsted St & 56th St",41.7930733333333,-87.6450258333333,2,3,2,3,0,0,5,0,5
"517","KA1503000012","Clark St & Lake St",41.885998368,-87.63122952,345,350,109,107,229,239,695,468,216
"518","KA1503000013","Princeton Ave & Garfield Blvd",41.794982,-87.633124,4,5,1,1,3,3,9,6,2
"519","KA1503000014","Ellis Ave & 60th St",41.78509714636,-87.6010727606,1200,1160,124,119,1069,1034,2360,2103,243
"520","KA1503000015","Wabash Ave & Adams St",41.879381,-87.6257656666667,255,257,108,106,140,146,512,286,214
"521","KA1503000018","Jeffery Blvd & 71st St",41.76663823695,-87.5764501141,3,4,0,0,3,4,7,7,0
"522","KA1503000019","Stony Island Ave & 75th St",41.7586696704,-87.586882871,5,4,0,0,4,3,9,7,0
"523","KA1503000020","South Shore Dr & 74th St",41.76218896038,-87.55927465,6,4,2,1,3,3,10,6,3
"524","KA1503000021","Stony Island Ave & 64th St",41.778881,-87.586647,6,3,1,1,5,2,9,7,2
"525","KA1503000022","Clark St & Montrose Ave",41.961588,-87.666036,125,100,35,35,88,64,225,152,70
"526","KA1503000023","Stony Island Ave & 67th St",41.77345849948,-87.5853397391,6,4,1,0,5,4,10,9,0
"527","KA1503000024","Yates Blvd & 75th St",41.758768,-87.56644,2,6,0,0,2,4,8,6,0
"528","KA1503000025","Wentworth Ave & 63rd St",41.78007963264,-87.6297463052,10,3,3,1,6,2,13,8,4
"529","KA1503000027","Prairie Ave & 43rd St",41.8166851666667,-87.6194316666667,10,10,3,2,7,7,20,14,5
"530","KA1503000028","Jeffery Blvd & 76th St",41.75712,-87.575839,1,2,0,0,0,0,3,0,0
"531","KA1503000029","South Shore Dr & 67th St",41.773643,-87.567514,23,22,9,7,14,15,45,29,16
"532","KA1503000030","Jeffery Blvd & 67th St",41.77351755125,-87.5771428255,9,4,1,1,8,3,13,11,2
"533","KA1503000031","Cottage Grove Ave & 67th St",41.77372095205,-87.60563486,7,7,5,5,2,2,14,4,10
"534","KA1503000032","Union Ave & Root St",41.819102,-87.643278,6,5,3,3,3,1,11,4,6
"535","KA1503000033","Eberhart Ave & 61st St",41.7840568333333,-87.6132776666667,10,11,8,9,2,2,21,4,17
"536","KA1503000034","LaSalle St & Adams St",41.880067348,-87.631939173,201,195,43,42,150,149,396,299,85
"537","KA1503000038","Shields Ave & 31st St",41.838464,-87.635406,93,87,20,17,73,69,180,142,37
"538","KA1503000040","Loomis St & Archer Ave",41.84163253965,-87.6574349533,20,18,8,6,12,12,38,24,14
"539","KA1503000041","McClurg Ct & Erie St",41.894212604,-87.618164301,419,420,175,165,244,252,839,496,340
"540","KA1503000043","Kingsbury St & Kinzie St",41.88917683258,-87.6385057718,1148,1067,410,386,735,679,2215,1414,796
"541","KA1503000044","Rush St & Hubbard St",41.8898731666667,-87.6262205,197,204,74,73,120,128,401,248,147
"542","KA1503000045","Stony Island Ave & 71st St",41.7665093333333,-87.58648,7,7,4,3,3,4,14,7,7
"543","KA1503000046","Dorchester Ave & 63rd St",41.7804056457,-87.5914159893,11,13,0,0,11,13,24,24,0
"544","KA1503000047","Perry Ave & 69th St",41.76929308995,-87.6281959291,1,1,0,0,1,1,2,2,0
"545","KA1503000051","Halsted St & 47th Pl",41.8081346666667,-87.6456421666667,20,21,13,13,7,8,41,15,26
"546","KA1503000052","Ellis Ave & 53rd St",41.79933626261,-87.6009581145,255,272,7,7,247,263,527,510,14
"547","KA1503000053","MLK Jr Dr & 63rd St",41.78008063659,-87.6159428567,4,1,1,1,3,0,5,0,2
"548","KA1503000054","Cottage Grove Ave & 63rd St",41.7806009452142,-87.6058360934258,21,20,7,7,12,13,41,25,14
"549","KA1503000055","Halsted & 63rd - Kennedy-King Vaccination Site",41.77938114228,-87.6446208145,3,2,0,0,3,2,5,5,0
"550","KA1503000059","Lake Park Ave & 53rd St",41.79949429373,-87.5864498959,145,163,20,21,120,139,308,259,41
"551","KA1503000064","Dusable Harbor",41.886976,-87.612813,119,114,16,17,92,87,233,179,33
"552","KA1503000065","Woodlawn Ave & Lake Park Ave",41.8140801666667,-87.597048,37,37,5,4,32,33,74,65,9
"553","KA1503000066","Wood St & 35th St",41.83010465416,-87.6702983089,27,22,8,9,19,11,49,30,17
"554","KA1503000068","Leavitt St & Archer Ave",41.828793287,-87.68062079,12,15,3,3,8,11,27,19,6
"555","KA1503000069","Dorchester Ave & 49th St",41.805772,-87.592464,34,24,8,6,26,18,58,44,14
"556","KA1503000070","Harper Ave & 59th St",41.78794281287,-87.5883151702,197,208,10,9,185,198,405,383,19
"557","KA1503000071","University Ave & 57th St",41.791478,-87.599861,1216,1277,109,105,1099,1163,2493,2262,214
"558","KA1503000072","Wacker Dr & Washington St",41.8831433643902,-87.6372420787811,313,303,124,121,185,177,616,362,245
"559","KA1503000073","MLK Jr Dr & 56th St",41.79342945658,-87.6158532619,14,7,8,4,6,3,21,9,12
"560","KA1503000074","Museum of Science and Industry",41.79172820953,-87.583945009,64,48,12,11,48,32,112,80,23
"561","KA1503000075","DuSable Museum",41.79156801058,-87.6078521774,23,15,4,4,19,11,38,30,8
"562","KA1504000076","Ellis Ave & 55th St",41.79430062054,-87.6014497734,769,802,66,61,703,737,1571,1440,127
"563","KA1504000078","Lincoln Ave & Winona St",41.974912167,-87.692728758,32,32,19,18,12,14,64,26,37
"564","KA1504000079","Larrabee St & Division St",41.9035081666667,-87.6433383333333,240,247,102,100,136,146,487,282,202
"565","KA1504000080","Washtenaw Ave & Lawrence Ave",41.968987,-87.696027,60,58,26,27,34,31,118,65,53
"566","KA1504000082","Kedzie Ave & Harrison St",41.8736703333333,-87.7048655,4,4,3,3,1,1,8,2,6
"567","KA1504000086","Kedzie Ave & 24th St",41.84819094491,-87.7054137458,1,0,0,0,1,0,0,0,0
"568","KA1504000090","St. Louis Ave & Fullerton Ave",41.924795151,-87.714563608,61,65,43,40,18,25,126,43,83
"569","KA1504000091","Hoyne Ave & 47th St",41.8082206666667,-87.6772125,4,5,3,3,1,2,9,3,6
"570","KA1504000093","Rockwell St & Eastwood Ave",41.96590013976,-87.6936384935,86,70,42,40,44,29,156,73,82
"571","KA1504000096","Sawyer Ave & Irving Park Rd",41.953619242,-87.709331512,21,26,17,15,4,11,47,15,32
"572","KA1504000097","Drake Ave & Montrose Ave",41.961177349,-87.716502428,24,20,4,4,19,16,44,35,8
"573","KA150400009X","Kimball Ave & Belmont Ave",41.939398,-87.711561,55,47,36,36,19,11,102,30,72
"574","KA1504000101","Ogden Ave & Roosevelt Rd",41.86650148316,-87.68469707,39,37,29,30,10,7,76,17,59
"575","KA1504000102","Fairfield Ave & Roosevelt Rd",41.866633654,-87.694496989,31,35,29,30,2,5,66,7,59
"576","KA1504000103","Western Ave & Walton St",41.8984516666667,-87.6865218333333,110,114,63,59,41,45,224,86,122
"577","KA1504000104","Paulina St & Flournoy St",41.87295,-87.66913,331,334,123,114,207,219,665,426,237
"578","KA1504000106","Kedzie Ave & Lake St",41.88460328501,-87.7063037436,9,5,4,5,5,0,14,0,9
"579","KA1504000109","Washtenaw Ave & Ogden Ave",41.861921191,-87.693525314,19,26,10,6,9,20,45,29,16
"580","KA1504000110","Millard Ave & 26th St",41.8445335,-87.7159708333333,15,15,2,1,13,14,30,27,3
"581","KA1504000113","Sacramento Blvd & Franklin Blvd",41.8904687924386,-87.7026075124741,5,5,0,0,5,5,10,10,0
"582","KA1504000114","Kedzie Ave & Chicago Ave",41.89546530305,-87.7061278837,14,17,2,2,10,9,31,19,4
"583","KA1504000116","Larrabee St & Oak St",41.90021949323,-87.6429854676,190,182,82,83,107,98,372,205,165
"584","KA1504000117","Halsted St & North Branch St",41.8993435,-87.6484483333333,45,57,31,33,14,23,102,37,64
"585","KA1504000126","Kedzie Ave & Leland Ave",41.96668636205,-87.7080519806,29,23,17,15,12,8,52,20,32
"586","KA1504000127","Manor Ave & Leland Ave",41.965875,-87.700825,36,30,12,13,24,17,66,41,25
"587","KA1504000128","Kedzie Ave & Foster Ave",41.975672,-87.709261,22,16,9,7,9,6,38,15,16
"588","KA1504000129","Western Ave & Granville Ave",41.9941405,-87.689452,17,15,10,4,7,11,32,18,14
"589","KA1504000130","Maplewood Ave & Peterson Ave",41.99023602867,-87.6933696402,11,13,2,4,9,9,24,18,6
"590","KA1504000133","Rush St & Cedar St",41.90230870122,-87.627690528,306,329,130,132,172,194,635,366,262
"591","KA1504000134","Ritchie Ct & Banks St",41.906866,-87.626217,249,239,94,89,152,148,488,300,183
"592","KA1504000135","Wells St & Elm St",41.903222,-87.634324,685,643,252,240,430,398,1328,828,492
"593","KA1504000139","Monticello Ave & Irving Park Rd",41.95400483876,-87.7191281797,39,36,19,21,19,14,75,33,40
"594","KA1504000140","Winchester Ave & Elston Ave",41.924065709,-87.676596403,86,91,49,52,35,39,177,74,101
"595","KA1504000141","Pulaski Rd & Eddy St (Temp)",41.946264,-87.731023,10,8,4,4,6,3,18,9,8
"596","KA1504000142","Drake Ave & Addison St",41.9473878333333,-87.7175655,35,24,18,16,16,8,59,24,34
"597","KA1504000143","Leavitt St & Addison St",41.9465878333333,-87.6833231666667,57,58,17,17,39,41,115,80,34
"598","KA1504000146","Clark St & Berwyn Ave",41.9780306224866,-87.668564915657,171,188,78,78,91,110,359,201,156
"599","KA1504000147","Winchester (Ravenswood) Ave & Balmoral Ave",41.979762,-87.67753,66,72,21,21,43,49,138,92,42
"600","KA1504000148","Clark St & Elmdale Ave",41.9908604481256,-87.6697236299515,83,68,25,21,52,43,151,95,46
"601","KA1504000149","Damen Ave & Foster Ave",41.975615,-87.679459,88,80,47,45,38,35,168,73,92
"602","KA1504000151","Clark St & Bryn Mawr Ave",41.983593,-87.669154,156,172,87,83,69,85,328,154,170
"603","KA1504000152","Lakefront Trail & Bryn Mawr Ave",41.98403669612,-87.6523104689,90,91,13,12,77,79,181,156,25
"604","KA1504000155","2112 W Peterson Ave",41.991221547,-87.683618784,14,20,8,10,6,10,34,16,18
"605","KA1504000156","Clark St & Schreiber Ave",41.9992526666667,-87.6713431666667,95,87,39,36,55,51,182,106,75
"606","KA1504000158","Oakley Ave & Irving Park Rd",41.95434085219,-87.6860796243,49,71,29,29,20,42,120,62,58
"607","KA1504000159","Sheridan Rd & Greenleaf Ave",42.01058656284,-87.6624120948,31,23,5,4,24,17,54,41,9
"608","KA1504000160","Francisco Ave & Foster Ave",41.9756781666667,-87.7014033333333,17,28,8,8,9,18,45,27,16
"609","KA1504000161","St. Louis Ave & Balmoral Ave",41.98039423475,-87.7161149615,27,21,12,11,13,8,48,21,23
"610","KA1504000162","Clark St & Lunt Ave",42.009061575,-87.674363494,67,68,40,39,25,28,135,53,79
"611","KA1504000164","Keystone Ave & Montrose Ave",41.961101651,-87.728997588,21,19,10,10,11,9,40,20,20
"612","KA1504000167","Kedzie Ave & Bryn Mawr Ave",41.9822297591152,-87.7088865637779,27,29,16,15,11,14,56,25,31
"613","KA1504000168","Western & 28th - Velasquez Institute Vaccination Site",41.841564894,-87.685187697,2,6,2,4,0,0,8,0,6
"614","KA1504000171","Marine Dr & Ainslie St",41.9716,-87.650154,100,95,36,35,60,58,195,118,71
"615","KA1504000175","Glenwood Ave & Morse Ave",42.00797192287,-87.6655023944,76,83,28,32,48,51,159,99,60
"616","KA17018054","Damen Ave & Walnut (Lake) St",41.885951,-87.677009,77,74,47,41,29,32,151,61,88
"617","KA17018068","Leavitt St & Belmont Ave",41.939354,-87.683282,78,90,40,42,38,48,168,86,82
"618","KA1706005007","Delano Ct & Roosevelt Rd",41.8674891666667,-87.6321261666667,115,105,62,57,52,47,220,99,119
"619","KA1706005015","Kildare Ave & Montrose Ave",41.96108,-87.73569,18,14,1,1,17,13,32,30,2
"620","KP1705001026","LaSalle Dr & Huron St",41.894877,-87.632326,320,280,98,87,217,190,600,407,185
"621","LF-005","DuSable Lake Shore Dr & North Blvd",41.911722,-87.626804,196,172,45,45,142,115,368,257,90
"622","LP-","Lincoln Park Conservatory",41.9241798333333,-87.6359093333333,148,125,55,40,90,84,273,174,95
"623","RN-","Franklin St & Illinois St",41.8911056666667,-87.6354856666667,429,343,183,163,246,177,772,423,346
"624","RP-001","Warren Park West",42.001785,-87.688829,17,17,1,1,16,14,34,30,2
"625","RP-002","Warren Park East",42.00454962194,-87.6806661451,31,31,20,24,11,7,62,18,44
"626","RP-004","Oakley Ave & Touhy Ave",42.0123325,-87.6882338333333,11,16,9,10,2,6,27,8,19
"627","RP-005","Western Ave & Lunt Ave",42.0085463333333,-87.690454,39,50,24,25,15,25,89,40,49
"628","RP-006","Ridge Blvd & Touhy Ave",42.0121355,-87.6829673333333,10,11,5,4,5,7,21,12,9
"629","RP-007","Clark St & Touhy Ave",42.01256011541,-87.6743671152,41,35,20,18,21,17,76,38,38
"630","RP-008","Clark St & Columbia Ave",42.00445062934,-87.6724024047,56,43,16,15,40,28,99,68,31
"631","RP-009","Sheridan Rd & Loyola Ave",42.0011163333333,-87.6612821666667,74,82,32,31,42,51,156,93,63
"632","SL-005","Indiana Ave & Roosevelt Rd",41.867888,-87.623041,481,423,149,142,321,268,904,589,291
"633","SL-006","Wells St & 19th St",41.856802,-87.633879,24,23,6,8,14,12,47,26,14
"634","SL-007","State St & Harrison St",41.874053,-87.627716,148,156,48,49,97,98,304,195,97
"635","SL-008","Federal St & Polk St",41.87207763285,-87.6295437729,473,508,162,164,306,333,981,639,326
"636","SL-009","Clark St & 9th St (AMLI)",41.8708383333333,-87.6311861666667,170,148,29,31,141,117,318,258,60
"637","SL-010","Financial Pl & Ida B Wells Dr",41.874986,-87.6331646666667,219,219,82,78,137,139,438,276,160
"638","SL-011","Wells St & Polk St",41.872596,-87.633502,359,283,107,101,250,182,642,432,208
"639","SL-012","Wabash Ave & 16th St",41.8603245,-87.6258556666667,156,129,40,34,114,95,285,209,74
"640","SL-013","State St & 19th St",41.856594,-87.627542,35,45,12,13,22,31,80,53,25
"641","TA1305000001","Wabash Ave & Cermak Rd",41.852619,-87.626488,44,42,15,13,29,26,86,55,28
"642","TA1305000002","Wabash Ave & Roosevelt Rd",41.867227,-87.625961,458,497,146,146,303,337,955,640,292
"643","TA1305000003","Fairbanks Ct & Grand Ave",41.8918473721099,-87.6205801963806,449,449,142,144,300,300,898,600,286
"644","TA1305000004","McCormick Place",41.851478934,-87.6188761,68,54,13,12,51,40,122,91,25
"645","TA1305000005","Dearborn St & Adams St",41.8785963333333,-87.6297435,264,273,75,75,172,187,537,359,150
"646","TA1305000006","Dearborn St & Monroe St",41.8809983333333,-87.6300746666667,528,491,155,142,357,339,1019,696,297
"647","TA1305000009","Clark St & Ida B Wells Dr",41.875951,-87.6306015,213,235,55,55,151,173,448,324,110
"648","TA1305000010","Michigan Ave & Ida B Wells Dr",41.876243,-87.624426,109,124,34,37,71,87,233,158,71
"649","TA1305000011","Michigan Ave & Lake St",41.886024,-87.624117,381,413,106,102,269,298,794,567,208
"650","TA1305000014","Clark St & Wrightwood Ave",41.9296908333333,-87.6431651666667,471,421,185,180,281,240,892,521,365
"651","TA1305000017","Halsted St & Roosevelt Rd",41.867324,-87.648625,198,250,75,84,122,165,448,287,159
"652","TA1305000020","Ogden Ave & Chicago Ave",41.8964015,-87.654096,224,238,114,112,108,123,462,231,226
"653","TA1305000022","Orleans St & Merchandise Mart Plaza",41.888243,-87.63639,432,447,181,179,249,267,879,516,360
"654","TA1305000025","Franklin St & Jackson Blvd",41.877627134,-87.63523829,378,397,158,154,208,237,775,445,312
"655","TA1305000029","State St & Randolph St",41.8846210725794,-87.6278342306614,458,482,162,164,287,312,940,599,326
"656","TA1305000030","Clark St & Randolph St",41.884576228,-87.63188991,385,407,131,129,251,276,792,527,260
"657","TA1305000032","Clinton St & Madison St",41.882005334,-87.641380072,854,907,359,360,492,544,1761,1036,719
"658","TA1305000034","Honore St & Division St",41.903119,-87.673935,169,179,88,85,78,91,348,169,173
"659","TA1305000035","State St & Van Buren St",41.8771911666667,-87.6278211666667,245,257,101,93,141,163,502,304,194
"660","TA1305000037","Paulina Ave & North Ave",41.9098546521673,-87.6699301600456,143,146,77,77,65,68,289,133,154
"661","TA1305000039","Elston Ave & Cortland St",41.9164334291265,-87.6667463779449,200,217,111,113,87,103,417,190,224
"662","TA1305000041","Damen Ave & Pierce Ave",41.9093433333333,-87.6776498333333,404,411,229,213,165,190,815,355,442
"663","TA1306000002","Morgan Ave & 14th Pl",41.862378,-87.651062,70,67,27,31,40,35,137,75,58
"664","TA1306000003","Desplaines St & Kinzie St",41.888502002,-87.644338012,565,518,228,224,335,291,1083,626,452
"665","TA1306000006","Orleans St & Elm St",41.902924,-87.637715,73,89,27,28,46,59,162,105,55
"666","TA1306000007","Larrabee St & Menomonee St",41.9146965,-87.643327,115,121,39,33,74,87,236,161,72
"667","TA1306000008","Larrabee St & North Ave",41.91021,-87.6435,137,115,39,36,98,78,252,176,75
"668","TA1306000009","Larrabee St & Kingsbury St",41.897764,-87.642884,459,479,202,201,254,278,938,532,403
"669","TA1306000010","Daley Center Plaza",41.884241,-87.629634,567,501,149,142,416,358,1068,774,291
"670","TA1306000011","Wells St & Walton St",41.9000126666667,-87.634475,251,244,83,83,166,158,495,324,166
"671","TA1306000012","Wells St & Huron St",41.8948803333333,-87.6344016666667,615,620,226,225,387,392,1235,779,451
"672","TA1306000013","New St & Illinois St",41.8908470406238,-87.6186168193817,475,510,201,202,262,300,985,562,403
"673","TA1306000014","Wilton Ave & Diversey Pkwy",41.932418,-87.652705,390,401,138,135,251,262,791,513,273
"674","TA1306000015","Morgan St & Lake St",41.8859113333333,-87.6510891666667,354,419,143,153,209,261,773,470,296
"675","TA1306000016","Sheffield Ave & Fullerton Ave",41.9256018819,-87.6537080423,494,513,188,190,302,317,1007,619,378
"676","TA1306000025","Racine Ave & Congress Pkwy",41.874697208,-87.65708673,226,167,73,55,152,112,393,264,128
"677","TA1306000026","Racine Ave & Fullerton Ave",41.92556258,-87.65840426,422,457,133,135,289,322,879,611,268
"678","TA1306000029","McClurg Ct & Ohio St",41.8925921197097,-87.6172891259193,312,333,92,89,217,232,645,449,181
"679","TA1306000032","Sheffield Ave & Willow St",41.9137968333333,-87.6528468333333,218,223,87,84,131,139,441,270,171
"680","TA1307000001","Greenview Ave & Fullerton Ave",41.92533,-87.6658,258,303,141,142,116,158,561,274,283
"681","TA1307000005","Indiana Ave & 26th St",41.8456993333333,-87.6225301666667,35,31,24,24,11,7,66,18,48
"682","TA1307000006","Southport Ave & Wellington Ave",41.9357268333333,-87.6635686666667,258,238,76,74,179,160,496,339,150
"683","TA1307000038","Sedgwick St & North Ave",41.911281824,-87.63851738,381,379,121,121,257,255,760,512,242
"684","TA1307000039","Clark St & Elm St",41.902973,-87.63128,777,760,299,310,475,443,1537,918,609
"685","TA1307000041","DuSable Lake Shore Dr & Wellington Ave",41.9366884494997,-87.6368290185928,204,214,68,71,135,141,418,276,139
"686","TA1307000044","Clinton St & 18th St",41.85795,-87.640826,91,88,29,29,62,58,179,120,58
"687","TA1307000048","Fort Dearborn Dr & 31st St",41.8385233333333,-87.6082653333333,65,55,8,8,54,45,120,99,16
"688","TA1307000052","Sheffield Ave & Wellington Ave",41.9363491666667,-87.6524743333333,247,252,100,87,146,164,499,310,187
"689","TA1307000061","State St & Pearson St",41.897448,-87.628722,222,235,76,82,145,150,457,295,158
"690","TA1307000062","Sedgwick St & Huron St",41.894666,-87.638437,304,239,95,87,209,151,543,360,182
"691","TA1307000064","Lincoln Ave & Diversey Pkwy",41.9322271666667,-87.6587836666667,411,389,125,119,286,269,800,555,244
"692","TA1307000066","Damen Ave & Coulter St",41.8492,-87.67564,17,22,7,9,10,13,39,23,16
"693","TA1307000070","Damen Ave & Thomas St (Augusta Blvd)",41.901315,-87.677409,194,154,72,63,119,88,348,207,135
"694","TA1307000107","Sheridan Rd & Montrose Ave",41.96167,-87.65464,289,289,98,97,187,189,578,376,195
"695","TA1307000111","Franklin St & Lake St",41.885837,-87.6355,477,387,208,177,269,210,864,479,385
"696","TA1307000113","Southport Ave & Wrightwood Ave",41.928773,-87.663913,137,161,71,72,64,88,298,152,143
"697","TA1307000115","Clybourn Ave & Division St",41.904548645,-87.640510917,154,174,63,62,91,112,328,203,125
"698","TA1307000117","Wabash Ave & Grand Ave",41.891436577,-87.627000928,630,649,287,285,339,360,1279,699,572
"699","TA1307000119","Clarendon Ave & Leland Ave",41.967968,-87.650001,130,110,45,41,84,68,240,152,86
"700","TA1307000120","Green St & Madison St",41.881892,-87.648789,522,577,227,235,290,333,1099,623,462
"701","TA1307000121","Halsted St & Polk St",41.8718493333333,-87.646759,423,475,120,120,300,351,898,651,240
"702","TA1307000124","Michigan Ave & 14th St",41.864152193,-87.623791575,261,258,92,90,162,165,519,327,182
"703","TA1307000126","Sheffield Ave & Waveland Ave",41.949196,-87.6544805,227,220,71,74,154,145,447,299,145
"704","TA1307000127","Clark St & Grace St",41.95078,-87.659172,215,200,57,57,154,141,415,295,114
"705","TA1307000128","Dearborn Pkwy & Delaware Pl",41.899062514,-87.629964352,433,500,184,186,247,312,933,559,370
"706","TA1307000129","State St & 35th St",41.8310363140161,-87.6267975568771,120,138,32,26,88,108,258,196,58
"707","TA1307000130","Morgan St & Polk St",41.871737,-87.65103,396,382,127,127,268,255,778,523,254
"708","TA1307000131","Wabash Ave & Wacker Pl",41.886875,-87.62603,229,230,64,64,162,160,459,322,128
"709","TA1307000134","Wilton Ave & Belmont Ave",41.94018,-87.65304,490,426,166,153,322,266,916,588,319
"710","TA1307000136","Clark St & Wellington Ave",41.9364968219,-87.6475386582,296,311,79,75,216,233,607,449,154
"711","TA1307000138","Lincoln Ave & Roscoe St",41.9437911500595,-87.671257853508,213,233,81,81,130,145,446,275,162
"712","TA1307000139","MLK Jr Dr & 29th St",41.842052,-87.617,200,141,58,46,141,93,341,234,104
"713","TA1307000140","Western Ave & Leland Ave",41.966501832,-87.688717961,157,162,76,71,77,89,319,166,147
"714","TA1307000142","Clark St & Drummond Pl",41.931197286,-87.644221306,398,423,162,164,234,257,821,491,326
"715","TA1307000143","Sedgwick St & Schiller St",41.90765214,-87.638322592,86,83,32,30,54,53,169,107,62
"716","TA1307000144","Wolcott (Ravenswood) Ave & Montrose Ave",41.961406,-87.676169,98,92,44,42,54,48,190,102,86
"717","TA1307000149","Ravenswood Ave & Irving Park Rd",41.95469,-87.67393,91,127,36,38,55,89,218,144,74
"718","TA1307000150","Pine Grove Ave & Waveland Ave",41.9494727408833,-87.6464527845383,281,283,73,71,207,211,564,418,144
"719","TA1307000151","Wells St & Hubbard St",41.889906,-87.634266,681,701,294,294,384,404,1382,788,588
"720","TA1307000153","Emerald Ave & 28th St",41.84358,-87.645368,58,66,4,4,54,62,124,116,8
"721","TA1307000156","Lincoln Ave & Sunnyside Ave",41.9630723333333,-87.6848478333333,110,103,37,38,72,62,213,134,75
"722","TA1307000158","Damen Ave & Leland Ave",41.967094,-87.679028,114,113,51,51,63,62,227,125,102
"723","TA1307000159","Paulina St & 18th St",41.8578061666667,-87.6683258333333,111,88,35,35,76,52,199,128,70
"724","TA1307000160","Prairie Ave & Garfield Blvd",41.794853,-87.618691,42,36,11,11,28,24,78,52,22
"725","TA1307000161","Halsted St & 37th St",41.8271385,-87.6457226666667,18,19,16,16,1,3,37,4,32
"726","TA1307000163","Clifton Ave & Armitage Ave",41.9182306666667,-87.6571408333333,209,191,61,61,142,127,400,269,122
"727","TA1307000164","Woodlawn Ave & 55th St",41.795264,-87.596471,336,273,35,25,298,247,609,545,60
"728","TA1307000166","Halsted St & Willow St",41.913865,-87.648755,263,260,98,90,165,169,523,334,188
"729","TA1308000001","Theater on the Lake",41.926277,-87.630834,214,184,31,25,173,149,398,322,56
"730","TA1308000002","Greenwood Ave & 47th St",41.809835,-87.599383,60,61,42,42,18,18,121,36,84
"731","TA1308000005","Leavitt St & North Ave",41.910509366664,-87.6823890209198,129,137,67,64,62,70,266,132,131
"732","TA1308000006","Damen Ave & Grand Ave",41.891384,-87.6769008333333,132,139,86,87,46,50,271,96,173
"733","TA1308000007","MLK Jr Dr & 47th St",41.809798,-87.6163175,8,6,3,1,5,5,14,10,4
"734","TA1308000009","Shore Dr & 55th St",41.795212,-87.580715,253,228,41,43,211,181,481,392,84
"735","TA1308000012","Montrose Harbor",41.963982,-87.638181,58,49,10,5,38,35,107,73,15
"736","TA1308000013","Halsted St & Archer Ave",41.8472021666667,-87.6468066666667,80,81,30,29,45,48,161,93,59
"737","TA1308000014","Normal Ave & Archer Ave",41.849527,-87.640591,43,34,23,17,18,16,77,34,40
"738","TA1308000019","Racine Ave & Belmont Ave",41.939743,-87.658865,159,181,71,77,84,103,340,187,148
"739","TA1308000021","Winthrop Ave & Lawrence Ave",41.9688883333333,-87.6575533333333,109,133,45,45,64,87,242,151,90
"740","TA1308000022","Pine Grove Ave & Irving Park Rd",41.954383,-87.648043,243,249,62,65,167,170,492,337,127
"741","TA1308000023","Cottage Grove Ave & 43rd St",41.8163801666667,-87.6065758333333,27,22,14,14,13,8,49,21,28
"742","TA1308000026","Wentworth Ave & 24th St (Temp)",41.8500836934758,-87.6321405172348,31,35,4,4,25,31,66,56,8
"743","TA1308000029","Stetson Ave & South Water St",41.886835,-87.62232,410,266,119,97,280,159,676,439,216
"744","TA1308000031","Logan Blvd & Elston Ave",41.9295123333333,-87.684219,148,173,98,98,48,73,321,121,196
"745","TA1308000035","Lake Park Ave & 47th St",41.809443,-87.591875,45,44,13,13,30,28,89,58,26
"746","TA1308000036","Indiana Ave & 31st St",41.838842,-87.621857,88,98,19,18,69,79,186,148,37
"747","TA1308000038","Cottage Grove Ave & Oakwood Blvd",41.822985,-87.6071,10,12,4,6,6,6,22,12,10
"748","TA1308000043","Halsted St & 35th St",41.8306388333333,-87.6471058333333,58,68,29,32,26,35,126,61,61
"749","TA1308000045","Wallace St & 35th St",41.8310143299212,-87.6411835849285,18,22,3,7,13,12,40,25,10
"750","TA1308000046","Morgan St & 31st St",41.8378,-87.65114,114,119,67,64,45,51,233,96,131
"751","TA1308000047","Southport Ave & Clark St",41.957081,-87.664199,58,61,12,12,44,48,119,92,24
"752","TA1308000049","Wells St & Evergreen Ave",41.906724,-87.63483,419,423,155,150,255,268,842,523,305
"753","TA1308000050","Wells St & Concord Ln",41.912003279,-87.63463068,685,664,232,228,452,434,1349,886,460
"754","TA1309000001","Halsted St & Maxwell St",41.864883,-87.647071,172,158,54,52,114,105,330,219,106
"755","TA1309000002","Michigan Ave & Jackson Blvd",41.87785,-87.62408,186,173,47,48,135,123,359,258,95
"756","TA1309000003","Western Ave & 24th St",41.84847,-87.685109,27,27,17,12,10,15,54,25,29
"757","TA1309000004","LaSalle St & Jackson Blvd",41.878166,-87.631929,423,446,183,185,234,260,869,494,368
"758","TA1309000006","Larrabee St & Armitage Ave",41.9181361666667,-87.6437855,216,187,72,60,137,123,403,260,132
"759","TA1309000007","Franklin St & Monroe St",41.880317,-87.635185,517,452,237,218,275,227,969,502,455
"760","TA1309000008","Franklin St & Adams St (Temp)",41.8785743333333,-87.635663,272,294,115,119,155,174,566,329,234
"761","TA1309000010","Wabash Ave & 9th St",41.870769,-87.625734,423,435,179,175,244,255,858,499,354
"762","TA1309000011","Ellis Ave & 58th St",41.788746,-87.601334,405,447,17,18,382,422,852,804,35
"763","TA1309000012","Damen Ave & Sunnyside Ave",41.96325,-87.679258,56,52,13,13,42,38,108,80,26
"764","TA1309000014","Clark St & Leland Ave",41.967096,-87.667429,190,168,66,57,123,108,358,231,123
"765","TA1309000015","Leavitt St & Lawrence Ave",41.9687953333333,-87.6841448333333,58,47,26,26,32,21,105,53,52
"766","TA1309000018","Ravenswood Ave & Berteau Ave",41.957921,-87.673567,83,90,20,20,63,70,173,133,40
"767","TA1309000019","Lakeview Ave & Fullerton Pkwy",41.925858,-87.638973,344,296,93,90,248,205,640,453,183
"768","TA1309000021","Paulina St & Montrose Ave",41.961507,-87.671387,73,48,26,18,47,29,121,76,44
"769","TA1309000023","Sheffield Ave & Wrightwood Ave",41.928712,-87.653833,244,218,78,79,166,138,462,304,157
"770","TA1309000024","Clark St & Schiller St",41.907993,-87.631501,445,366,111,97,333,265,811,598,208
"771","TA1309000025","Halsted St & Roscoe St",41.94367,-87.64895,326,347,151,150,173,191,673,364,301
"772","TA1309000026","Lincoln Ave & Belle Plaine Ave",41.9559705,-87.680322,110,115,40,38,70,77,225,147,78
"773","TA1309000027","Sheridan Rd & Buena Ave",41.958485246,-87.655094981,154,146,44,42,109,104,300,213,86
"774","TA1309000029","Leavitt St & Armitage Ave",41.917805,-87.682437,105,111,54,52,50,58,216,108,106
"775","TA1309000030","Southport Ave & Clybourn Ave",41.920771,-87.663712,206,222,99,101,106,121,428,227,200
"776","TA1309000032","Elston Ave & Wabansia Ave",41.912919,-87.664169,74,78,43,38,30,39,152,69,81
"777","TA1309000033","Sheffield Ave & Webster Ave",41.9217115,-87.6538101666667,291,299,95,96,185,202,590,387,191
"778","TA1309000035","Clark St & Winnemac Ave",41.9733413333333,-87.6679095,303,287,109,108,189,175,590,364,217
"779","TA1309000036","Burling St & Diversey Pkwy",41.93314,-87.64776,265,277,74,78,189,198,542,387,152
"780","TA1309000037","Kimbark Ave & 53rd St",41.799568,-87.594747,428,408,55,48,368,357,836,725,103
"781","TA1309000039","DuSable Lake Shore Dr & Diversey Pkwy",41.932588,-87.636427,171,154,44,48,127,105,325,232,92
"782","TA1309000041","Sheridan Rd & Lawrence Ave",41.969517,-87.654691,127,117,34,36,93,81,244,174,70
"783","TA1309000042","Lincoln Ave & Belmont Ave",41.939365,-87.668385,251,283,100,103,150,179,534,329,203
"784","TA1309000043","Southport Ave & Irving Park Rd",41.9541191666667,-87.6641888333333,240,216,70,60,167,156,456,323,130
"785","TA1309000049","DuSable Lake Shore Dr & Belmont Ave",41.940775,-87.639192,225,232,75,76,148,153,457,301,151
"786","TA1309000050","Lincoln Ave & Addison St",41.94622,-87.6733695,62,71,26,27,36,44,133,80,53
"787","TA1309000051","Commercial Ave & 83rd St",41.744615,-87.551208,6,7,4,4,2,3,13,5,8
"788","TA1309000053","Cottage Grove Ave & 47th St",41.809855,-87.606755,42,44,12,11,30,32,86,62,23
"789","TA1309000055","Emerald Ave & 31st St",41.838198,-87.645143,133,126,52,53,79,73,259,152,105
"790","TA1309000058","Lincoln Ave & Fullerton Ave",41.9241610290676,-87.6463803648949,285,310,131,133,154,174,595,328,264
"791","TA1309000059","Racine Ave & Wrightwood Ave",41.928887,-87.658971,134,107,31,29,103,78,241,181,60
"792","TA1309000061","Halsted St & Wrightwood Ave",41.929143,-87.649077,416,403,150,149,266,254,819,520,299
"793","TA1309000063","Lake Park Ave & 56th St",41.793242,-87.587782,241,239,27,27,212,208,480,420,54
"794","TA1309000064","Wolcott Ave & Polk St",41.871262,-87.673688,415,342,170,141,244,200,757,444,311
"795","TA1309000066","Ravenswood Ave & Lawrence Ave",41.96909,-87.674237,314,316,117,116,195,197,630,392,233
"796","TA1309000067","Cottage Grove Ave & 51st St",41.803038,-87.606615,20,19,7,7,13,10,39,23,14
"797","Wilton Ave & Diversey Pkwy - Charging","Wilton Ave & Diversey Pkwy - Charging",41.932303429,-87.652688146,1,1,1,1,0,0,2,0,2
"798","WL-008","Clinton St & Roosevelt Rd",41.8671013333333,-87.641106,203,230,93,92,103,135,433,238,185
"799","WL-011","Jefferson St & Monroe St",41.8803296336346,-87.6427459716797,248,250,75,74,170,175,498,345,149
"800","WL-012","Clinton St & Washington Blvd",41.8836288333333,-87.6412955,872,922,370,372,502,550,1794,1052,742
